,shapeName,shapeID,shapeGroup,shapeType,longitude,latitude,is_land,tmz,elevation,surface_azimuth,fixed_yield,tracking_yield
0,Ambriz,91424787B55129164942932,AGO,ADM2,13.496760179444067,-7.9630039538182364,True,Africa/Luanda,165.0,0,334031.17165843345,400094.0889445736
1,Bula-Atumba,91424787B37538296064397,AGO,ADM2,14.812438328665513,-8.667627523822812,True,Africa/Luanda,900.0,0,347269.20310012426,407095.3737459115
2,Dande,91424787B22225869855797,AGO,ADM2,13.843401403566903,-8.55145924490527,True,Africa/Luanda,126.0,0,331898.7782876219,393425.95274019195
3,Dembos-Quibaxe,91424787B30710276228058,AGO,ADM2,14.535912382317628,-8.521373185992015,True,Africa/Luanda,801.0,0,332264.9942052312,389953.57988252945
4,Nambuangongo,91424787B85725666887647,AGO,ADM2,14.244442960615803,-8.066237269629543,True,Africa/Luanda,0.0,0,328550.3782668363,386105.58891561505
5,Balombo,91424787B68553415961222,AGO,ADM2,14.77414944181098,-12.373466361302539,True,Africa/Luanda,1231.0,0,395593.7859823538,478345.9795247643
6,Benguela,91424787B89506184943811,AGO,ADM2,13.593980314026041,-12.760812165355361,True,Africa/Luanda,0.0,0,395631.7558799937,456161.452384467
7,Bocoio,91424787B7228629994594,AGO,ADM2,14.261362380553226,-12.352038976589949,True,Africa/Luanda,1324.0,0,398381.145927823,486663.37529373425
8,Caimbambo,91424787B46456959244307,AGO,ADM2,13.90843172892028,-13.113645128034504,True,Africa/Luanda,0.0,0,415170.93213626056,510464.2026267821
9,Chongoroi,91424787B59258922825215,AGO,ADM2,13.77756142285942,-13.601078621278473,True,Africa/Luanda,742.0,0,403135.06263827754,490451.5367219504
10,Cubal,91424787B94223013824021,AGO,ADM2,14.33349144001585,-13.162483159877745,True,Africa/Luanda,0.0,0,409668.3678244732,499439.95565088023
11,Ganda,91424787B85498389381711,AGO,ADM2,14.724561561279126,-13.128665358205721,True,Africa/Luanda,0.0,0,404640.78585288394,491837.7192751925
12,Lobito,91424787B28058724982941,AGO,ADM2,13.829649985720648,-12.18912650821606,True,Africa/Luanda,262.0,0,376529.38014168566,448706.32845755445
13,Andulo,91424787B26485253533103,AGO,ADM2,16.43642091399479,-11.278210057517954,True,Africa/Luanda,0.0,0,392762.34438411886,478355.6907559485
14,Camacupa,91424787B2752331386063,AGO,ADM2,17.754037672741212,-12.43323316684458,True,Africa/Luanda,1359.0,0,406959.9903728223,497324.8791158259
15,Catabola,91424787B92424746149540,AGO,ADM2,17.241337279034536,-12.139757528558983,True,Africa/Luanda,0.0,0,405056.27279279777,494152.94667766476
16,Chitembo,91424787B86258699499147,AGO,ADM2,17.21036032422126,-13.473679277028618,True,Africa/Luanda,1455.0,0,418199.9395598467,516937.58956983883
17,Cuemba,91424787B96157154901846,AGO,ADM2,18.414791279276873,-11.822728803702178,True,Africa/Luanda,0.0,0,394836.1097523246,480106.335287843
18,Cuito,91424787B70988642078334,AGO,ADM2,17.013127024387103,-12.539454842054159,True,Africa/Luanda,1647.0,0,407214.9208987459,499061.4496385983
19,Cunhinga,91424787B32669130254170,AGO,ADM2,16.79673453550408,-11.997603987899385,True,Africa/Luanda,0.0,0,396734.0459364212,485659.6712880727
20,N'harea,91424787B80938274141601,AGO,ADM2,17.145407281782393,-11.312567364299204,True,Africa/Luanda,1541.0,0,393634.63802096306,480754.4426491222
21,Belize,91424787B56518154407657,AGO,ADM2,12.83503842723381,-4.599994769405563,True,Africa/Luanda,0.0,0,301376.9355182701,345918.80312269897
22,Buco Zau,91424787B42052602271073,AGO,ADM2,12.546975587405397,-4.809897724646232,True,Africa/Luanda,0.0,0,301873.48949558765,353117.55039023556
23,Cabinda,91424787B3279989161156,AGO,ADM2,12.367527937931708,-5.474256507046171,True,Africa/Luanda,74.0,0,289976.49008838023,336539.7519236854
24,Cacongo (Landana),91424787B26700352984519,AGO,ADM2,12.24965480014824,-5.057951195758614,True,Africa/Luanda,0.0,0,306131.8271673209,365485.0738396659
25,Calai,91424787B81188725160533,AGO,ADM2,19.409207299080098,-17.377613224075475,True,Africa/Luanda,1128.0,0,433844.7429425236,537631.7505092296
26,Cuangar,91424787B50715234408737,AGO,ADM2,18.149491078876505,-17.054938278999757,True,Africa/Luanda,0.0,0,431212.59026988776,531230.319800725
27,Cuchi,91424787B53017844135234,AGO,ADM2,16.961442347357472,-14.691517577201525,True,Africa/Luanda,1377.0,0,407281.47782402404,497053.36281832337
28,Cuito Cuanavale,91424787B2742201582277,AGO,ADM2,18.82816018640169,-14.929266161207108,True,Africa/Luanda,0.0,0,411998.9084383814,506018.8485780081
29,Dirico,91424787B87549238386331,AGO,ADM2,20.844229316496214,-17.524519875972317,True,Africa/Luanda,0.0,0,425631.67219248024,524992.0962330047
30,Mavinga,91424787B92574513972703,AGO,ADM2,20.25612208672233,-16.11496881936974,True,Africa/Luanda,1170.0,0,415135.6904179084,508347.84912535397
31,Menongue,91424787B22873795828762,AGO,ADM2,17.73588319558043,-15.19873685169669,True,Africa/Luanda,0.0,0,414478.0798234822,509221.2316439944
32,Rivungo,91424787B90420953037674,AGO,ADM2,21.943172190904427,-16.8222226549459,True,Africa/Luanda,1033.0,0,419421.43454012094,519367.41653765354
33,Ambaca,91424787B12430954294271,AGO,ADM2,15.502798981577351,-8.251039325913528,True,Africa/Luanda,0.0,0,361603.13949759386,426714.9708614802
34,Banga,91424787B36383065614480,AGO,ADM2,15.139419191645528,-8.710955552567627,True,Africa/Luanda,861.0,0,353868.64172964846,416216.59257908567
35,Bolongongo,91424787B54602528175613,AGO,ADM2,15.098962749493294,-8.404424540892963,True,Africa/Luanda,0.0,0,340270.77899550134,395312.55170640687
36,Cambambe,91424787B55281524391880,AGO,ADM2,14.571906482001186,-9.534866735928516,True,Africa/Luanda,286.0,0,352057.1996270544,407883.02031242196
37,Cazengo,91424787B63495384054170,AGO,ADM2,14.8033904941434,-9.34023043398887,True,Africa/Luanda,663.0,0,354103.7791639311,420079.8850998683
38,Golungo Alto,91424787B99250884755371,AGO,ADM2,14.6436462448136,-9.104858479527055,True,Africa/Luanda,0.0,0,347651.96787090204,406955.4467257475
39,Lucala,91424787B23637017417513,AGO,ADM2,15.23201560071086,-9.155671675324836,True,Africa/Luanda,928.0,0,364604.93109244865,432093.5866221839
40,Ngonguembo,91424787B26459237154328,AGO,ADM2,14.90446480191438,-8.922978866021067,True,Africa/Luanda,0.0,0,354344.03448807134,418123.3325190751
41,Quiculongo,91424787B64555741816921,AGO,ADM2,15.31016862534987,-8.531226174724818,True,Africa/Luanda,0.0,0,341495.43741963076,383454.09071313177
42,Samba Caju,91424787B35995494267841,AGO,ADM2,15.491095280743751,-8.824745573776967,True,Africa/Luanda,1215.0,0,363643.70432451693,425292.85366168723
43,Amboim (Gabela),91424787B8651457584120,AGO,ADM2,14.382895124088138,-10.898324602242857,True,Africa/Luanda,0.0,0,360630.0938061406,431342.6989430016
44,Cassongue,91424787B41902563878454,AGO,ADM2,14.96297016150271,-11.820254009026439,True,Africa/Luanda,0.0,0,388179.924290347,467506.9406059879
45,Cela (Waku Kungo),91424787B80090252235678,AGO,ADM2,15.305421276636869,-11.285417105653712,True,Africa/Luanda,1414.0,0,378272.0819964239,455257.6959613115
46,Conda,91424787B21193839526041,AGO,ADM2,14.426576350559458,-11.182749213865861,True,Africa/Luanda,0.0,0,384885.1764160241,459592.2813666142
47,Ebo,91424787B423531810897,AGO,ADM2,14.724634758005564,-10.956241059669178,True,Africa/Luanda,1286.0,0,381417.6699544937,457295.072384935
48,Libolo (Calulo),91424787B93865841603880,AGO,ADM2,14.966605218804668,-10.06138925906975,True,Africa/Luanda,0.0,0,373044.39228195103,443386.95444752823
49,Mussende,91424787B41992735787773,AGO,ADM2,15.97657673997462,-10.276701967664414,True,Africa/Luanda,1356.0,0,392503.7961551368,479290.2863395908
50,Porto Amboim,91424787B69944310654421,AGO,ADM2,13.927204608043828,-10.633391976944537,True,Africa/Luanda,0.0,0,365025.29173580953,439704.19161433436
51,Quibala,91424787B28164329857407,AGO,ADM2,15.302505903620471,-10.69187716959414,True,Africa/Luanda,1282.0,0,373688.0259302779,447680.02242236224
52,Quilenda,91424787B30313273165210,AGO,ADM2,14.341583760237953,-10.532708683177944,True,Africa/Luanda,0.0,0,354410.42820041644,417933.55225450115
53,Seles (Uku Seles),91424787B68138507160329,AGO,ADM2,14.483163580415967,-11.468495327379816,True,Africa/Luanda,1133.0,0,382120.13640073524,461126.07627992803
54,Sumbe (Ngangula),91424787B14975788239862,AGO,ADM2,14.0513980469942,-11.548944900341654,True,Africa/Luanda,0.0,0,361719.3236933938,430176.6282975494
55,Cahama,91424787B18183137750299,AGO,ADM2,14.263924369307784,-16.40147865439088,True,Africa/Luanda,1193.0,0,427680.8359892691,530024.1259780953
56,Cuanhama,91424787B85678158059981,AGO,ADM2,16.310036599526,-16.487251031665032,True,Africa/Luanda,0.0,0,430840.4902853057,531703.0835768821
57,Curoca,91424787B51767671354696,AGO,ADM2,13.80461057181527,-16.92296370040376,True,Africa/Luanda,920.0,0,442344.8219504525,556922.2635577467
58,Cuvelai,91424787B91850178309544,AGO,ADM2,16.129260946192815,-15.745456557007294,True,Africa/Luanda,0.0,0,423036.3587929829,519512.5811128646
59,Namacunde,91424787B39035516179653,AGO,ADM2,16.610769262708345,-17.081343558046946,True,Africa/Luanda,0.0,0,432878.62624925165,535808.7729010623
60,Ombadja,91424787B27894484907941,AGO,ADM2,14.94618611017775,-16.76374166694048,True,Africa/Luanda,1099.0,0,435229.15267125063,544517.2966620325
61,Bailundo,91424787B22600080058275,AGO,ADM2,15.842166086917427,-11.948975455438275,True,Africa/Luanda,0.0,0,405262.0912010537,494112.9758157628
62,Caala,91424787B49594631401051,AGO,ADM2,15.569042049451683,-13.267705325798579,True,Africa/Luanda,1547.0,0,413563.97723258566,505708.9301572322
63,Catchiungo,91424787B4945056352027,AGO,ADM2,16.31004686389393,-12.740777246027012,True,Africa/Luanda,0.0,0,403777.23516952794,489647.2714755969
64,Ecunha (Ekunha),91424787B26929322337008,AGO,ADM2,15.487937030861502,-12.547380954450889,True,Africa/Luanda,1652.0,0,397978.4074588573,484161.28244510863
65,Huambo,91424787B1003787955743,AGO,ADM2,15.782917304347723,-12.845759766992602,True,Africa/Luanda,0.0,0,405434.36319183523,495128.4001097042
66,Longonjo,91424787B84175872195418,AGO,ADM2,15.21915774360779,-13.092980754637145,True,Africa/Luanda,1727.0,0,399955.4094790162,484736.32760300435
67,Londuimbale,91424787B2916587937827,AGO,ADM2,15.28123538494941,-12.236582143109263,True,Africa/Luanda,0.0,0,389315.7705798582,469311.1942525529
68,Mungo,91424787B44862565406561,AGO,ADM2,16.214757369057857,-11.770723504574544,True,Africa/Luanda,1471.0,0,386232.3989876261,466995.2943024017
69,Tchikala-Tcholohanga,91424787B62086735686623,AGO,ADM2,16.080511761501374,-12.960454783432668,True,Africa/Luanda,0.0,0,413512.17296055716,505853.1414544664
70,Tchinjenje,91424787B26225862093313,AGO,ADM2,14.930876788116107,-12.82740785215314,True,Africa/Luanda,1367.0,0,402901.43266858015,490927.75751333596
71,Ukuma,91424787B201340197780,AGO,ADM2,15.14621202712976,-12.761594845225686,True,Africa/Luanda,0.0,0,395583.88477382774,480119.1022862015
72,Chinguar,91424787B39722780012320,AGO,ADM2,16.57348917962748,-12.577701137924059,True,Africa/Luanda,0.0,0,405828.01859165897,495492.75670763006
73,Caconda,91424787B63087440838187,AGO,ADM2,15.154943117638249,-13.767023966269981,True,Africa/Luanda,1603.0,0,417515.75738618063,511506.2108037177
74,Pango-Aluquem,91424787B4488869677577,AGO,ADM2,14.331702806850181,-8.92127837082863,True,Africa/Luanda,296.0,0,337201.3007439013,398328.0890339996
75,Nancova,91424787B52653764028844,AGO,ADM2,18.70797384938602,-16.372424130105074,True,Africa/Luanda,0.0,0,427553.2782529355,524394.807956914
76,Caluquembe,91424787B79663411061170,AGO,ADM2,14.534600002858767,-14.07469611220918,True,Africa/Luanda,0.0,0,422330.04692457383,520354.9910222817
77,Chibia,91424787B27563154960446,AGO,ADM2,13.833339897047498,-15.243459320545139,True,Africa/Luanda,1408.0,0,423261.9661653488,523143.90678786894
78,Chicomba,91424787B36301106441136,AGO,ADM2,15.004391694180875,-14.317006848762784,True,Africa/Luanda,0.0,0,435455.3622921286,541955.8896377123
79,Chipindo,91424787B45982790117633,AGO,ADM2,15.715816886379333,-13.89768612910304,True,Africa/Luanda,0.0,0,410981.3732615652,504405.1019922639
80,Cuvango,91424787B73167637219088,AGO,ADM2,16.305374925825646,-14.223469402740871,True,Africa/Luanda,1532.0,0,421421.975489774,519352.8799097134
81,Gambos(Chiange),91424787B65882215003042,AGO,ADM2,14.021611959291898,-15.840364556648195,True,Africa/Luanda,0.0,0,430544.9743518118,535067.4184536134
82,Humpata,91424787B49807424805266,AGO,ADM2,13.34636476391071,-15.104545391714597,True,Africa/Luanda,0.0,0,430818.8511054448,540407.6719075326
83,Jamba,91424787B29193645971076,AGO,ADM2,15.813215826606234,-14.83235385679577,True,Africa/Luanda,1433.0,0,419414.9698180847,516943.3443153116
84,Lubango,91424787B12923410016524,AGO,ADM2,13.805351918748409,-14.757424833473468,True,Africa/Luanda,0.0,0,430514.7627036564,531282.4012211027
85,Matala,91424787B96825353351701,AGO,ADM2,15.130924344683633,-15.297427125583836,True,Africa/Luanda,1237.0,0,428774.1080131405,530415.8265296072
86,Quilengues,91424787B76902935205568,AGO,ADM2,13.937933573325042,-14.160932834331563,True,Africa/Luanda,0.0,0,417524.2250997921,510714.8550635134
87,Quipungo,91424787B65395745560852,AGO,ADM2,14.52087243276359,-15.071524593364774,True,Africa/Luanda,1362.0,0,427628.81575695355,531478.3790647131
88,Belas,91424787B66059706224288,AGO,ADM2,13.249781374376926,-9.081567394733298,True,Africa/Luanda,0.0,0,348272.0377861167,422948.53261527314
89,Cacuaco,91424787B14243133178966,AGO,ADM2,13.474684003035621,-8.810436607900078,True,Africa/Luanda,0.0,0,336851.78613762907,404612.1054667193
90,Luanda,91424787B55521153380221,AGO,ADM2,13.266244795999349,-8.846176034686081,True,Africa/Luanda,73.0,0,358138.5663647662,434890.8213064045
91,Icolo e Bengo,91424787B45136787959125,AGO,ADM2,13.844284090208903,-9.184923631951872,True,Africa/Luanda,0.0,0,348472.248250202,417146.09958088276
92,Quissama,91424787B69259370367741,AGO,ADM2,13.837338369424245,-9.83957557724352,True,Africa/Luanda,218.0,0,342205.776451507,407201.47583122266
93,Cambulo,91424787B7794833392213,AGO,ADM2,21.493480443274542,-7.9098721764241615,True,Africa/Luanda,0.0,0,367755.8584938911,439453.1549618899
94,Capenda-Camulemba,91424787B15683694525911,AGO,ADM2,18.830365548373408,-9.772373508316564,True,Africa/Luanda,0.0,0,379229.7735400836,457856.0829563091
95,Caungula,91424787B41460379918234,AGO,ADM2,18.827539484738246,-8.350668417572061,True,Africa/Luanda,1193.0,0,352294.04071951855,416554.58750839345
96,Chitato,91424787B90607964239215,AGO,ADM2,20.398788885306317,-7.394779715089166,True,Africa/Luanda,0.0,0,373110.5164294742,447955.6703299975
97,Cuango,91424787B83606062425876,AGO,ADM2,18.055475579975738,-8.618460906191817,True,Africa/Luanda,0.0,0,367092.0682060306,442213.22412306385
98,Cuilo,91424787B17792860474609,AGO,ADM2,19.688398822392585,-8.145601213868296,True,Africa/Luanda,1074.0,0,358087.266291604,430712.2700279502
99,Lubalo,91424787B46795887578157,AGO,ADM2,19.314355894525004,-9.264594797279607,True,Africa/Luanda,0.0,0,376061.77757934877,452416.3996993573
100,Lucapa,91424787B48042434529764,AGO,ADM2,20.474602604141865,-8.44094506008547,True,Africa/Luanda,0.0,0,368456.00061728,442060.0087096001
101,Xa-Muteba,91424787B55001564307677,AGO,ADM2,17.980037187283802,-9.502635673320574,True,Africa/Luanda,933.0,0,390199.25290447735,477464.1431467094
102,Cacolo,91424787B11681042656002,AGO,ADM2,19.190898591938723,-10.697174231805475,True,Africa/Luanda,0.0,0,384218.9501041843,461969.405599141
103,Dala,91424787B38882855808197,AGO,ADM2,20.34210314370202,-10.958871978666663,True,Africa/Luanda,1240.0,0,384372.7392367504,470890.0275081896
104,Muconda,91424787B56866030403615,AGO,ADM2,21.421259007232578,-10.179599180229006,True,Africa/Luanda,0.0,0,390532.1668417401,476634.6987295273
105,Saurimo,91424787B32640595944585,AGO,ADM2,20.686853093598423,-9.497919447571986,True,Africa/Luanda,1009.0,0,379554.174975703,460557.54871249216
106,Cacuso,91424787B27553841432178,AGO,ADM2,15.617437058250308,-9.500604346387313,True,Africa/Luanda,0.0,0,376857.93502119946,450330.6335034945
107,Cahombo,91424787B12567733179879,AGO,ADM2,16.652748778032294,-8.667750035613073,True,Africa/Luanda,809.0,0,386511.6556267829,472314.70598298055
108,Calandula,91424787B81710003756648,AGO,ADM2,15.993004089260658,-8.716457763306874,True,Africa/Luanda,0.0,0,361911.6423135374,426755.6544236791
109,Cambundi-Catembo,91424787B22609176467527,AGO,ADM2,17.63688218353546,-10.211636639178039,True,Africa/Luanda,1107.0,0,382602.87117852503,463496.8282638367
110,Cangandala,91424787B16698787972109,AGO,ADM2,16.67885913628035,-9.981483676242503,True,Africa/Luanda,0.0,0,388868.45355052955,470664.61610732094
111,Cunda-dia-Baze,91424787B4961383306768,AGO,ADM2,17.34485886276608,-8.67895326060328,True,Africa/Luanda,0.0,0,380088.4610094652,462073.89886654704
112,Kiuaba-N'Zoji,91424787B74971894264507,AGO,ADM2,16.453484929171406,-9.067887573267157,True,Africa/Luanda,1122.0,0,372909.3658711188,445372.2868436878
113,Luquembo,91424787B85219322931866,AGO,ADM2,17.37926578495637,-10.80749974792941,True,Africa/Luanda,0.0,0,398358.54920604493,488357.7418292512
114,Malanje,91424787B32489723581228,AGO,ADM2,16.34624105074465,-9.502815486291857,True,Africa/Luanda,1193.0,0,376718.9703559049,453636.32960355177
115,Marimba,91424787B67542854590924,AGO,ADM2,17.10732964498149,-8.18593953268948,True,Africa/Luanda,0.0,0,373785.3794515048,455737.54077960784
116,Massango,91424787B44714892855770,AGO,ADM2,16.598872966437785,-7.779127422895188,True,Africa/Luanda,720.0,0,376301.38930411765,457755.61419508373
117,Mucari,91424787B90267506609693,AGO,ADM2,16.897830170572963,-9.513796662545436,True,Africa/Luanda,0.0,0,383176.99869493546,466318.2467537606
118,Quela,91424787B39192527318793,AGO,ADM2,17.27713261697781,-9.359057048681306,True,Africa/Luanda,0.0,0,387298.584106561,470279.00152029784
119,Quirima,91424787B65383538427912,AGO,ADM2,18.25674779789306,-11.08827015434898,True,Africa/Luanda,1257.0,0,389674.2875792217,472627.91488508455
120,Alto Zambeze,91424787B14573378953550,AGO,ADM2,22.89102778241335,-12.23742317815845,True,Africa/Luanda,0.0,0,396102.58730845584,482428.8477912825
121,Bundas,91424787B99215650003387,AGO,ADM2,21.2997377289317,-14.242762690969428,True,Africa/Luanda,1182.0,0,408566.79908148956,504376.0180993664
122,Camanongue,91424787B66026078935851,AGO,ADM2,20.212457254082167,-11.446368971645619,True,Africa/Luanda,0.0,0,396638.4833038286,487919.3480789492
123,Cameia (Lumeje),91424787B44044364519253,AGO,ADM2,21.251784792334806,-11.878555155762534,True,Africa/Luanda,0.0,0,401952.01914499456,492328.3527282517
124,Leua,91424787B88267048029006,AGO,ADM2,20.568735722120138,-11.788269038238152,True,Africa/Luanda,0.0,0,408317.2312015252,506070.22436351585
125,Luacano,91424787B19142680780947,AGO,ADM2,22.030136661107722,-11.704824308603882,True,Africa/Luanda,1079.0,0,402566.72688958026,496518.5415498235
126,Luau,91424787B20373206504825,AGO,ADM2,21.984263049548193,-10.93929143549664,True,Africa/Luanda,0.0,0,386834.3159422798,470604.2927642764
127,Luchazes,91424787B4065359116926,AGO,ADM2,19.504729149651585,-13.754481860923061,True,Africa/Luanda,0.0,0,410990.0080236089,503599.0778798874
128,Luena,91424787B11929587765837,AGO,ADM2,19.738974381362787,-12.361782572149496,True,Africa/Luanda,1227.0,0,398126.3226459344,486869.0160680249
129,Bibala,91424787B9367428478234,AGO,ADM2,13.110112934928939,-14.718529583857812,True,Africa/Luanda,0.0,0,412782.8735317287,506485.12358431774
130,Camucuio,91424787B84876845723860,AGO,ADM2,13.01191274701827,-14.038677148524185,True,Africa/Luanda,584.0,0,428656.14570235315,535318.8638287024
131,Namibe,91424787B32970526214853,AGO,ADM2,12.436982636698751,-14.760701311189122,True,Africa/Luanda,0.0,0,441018.6920722745,542947.2882870833
132,Tombwa,91424787B27648780541233,AGO,ADM2,12.36115409457187,-16.57712780511899,True,Africa/Luanda,371.0,0,447749.6773824556,564294.4950619299
133,Virei,91424787B61939006387595,AGO,ADM2,12.906325958302334,-15.830324245972538,True,Africa/Luanda,0.0,0,430501.82731295284,534625.9109875237
134,Baia Farta,91424787B27175102535550,AGO,ADM2,13.09164037674177,-13.195534199013917,True,Africa/Luanda,0.0,0,410545.37948400865,502233.5938910437
135,Ambuila,91424787B19411602176766,AGO,ADM2,14.448703123711217,-7.60808775140257,True,Africa/Luanda,552.0,0,337989.97138985986,386251.37628143915
136,Bembe,91424787B71715001010429,AGO,ADM2,14.267766188322145,-7.053457241622283,True,Africa/Luanda,0.0,0,335788.15370426694,393816.04124947195
137,Buengas,91424787B57377917491043,AGO,ADM2,15.826050953691304,-6.664229438991284,True,Africa/Luanda,907.0,0,361801.3174516304,428361.12401249626
138,Bungo,91424787B64947504066286,AGO,ADM2,15.436321852072592,-7.403311268677111,True,Africa/Luanda,0.0,0,366689.71928975434,434964.6758451225
139,Cangola,91424787B19129010397501,AGO,ADM2,15.952400647085305,-7.844550639637984,True,Africa/Luanda,0.0,0,370719.4793965191,447177.2986883935
140,Damba,91424787B64402846254496,AGO,ADM2,15.212503216653388,-6.734959196071171,True,Africa/Luanda,1044.0,0,353247.1873244435,418046.64388796483
141,Maquela do Zombo,91424787B8015687756398,AGO,ADM2,15.484887291103663,-6.114117919376163,True,Africa/Luanda,838.0,0,360279.66169103497,424884.0253790534
142,Milunga,91424787B58052517323546,AGO,ADM2,16.576937797832755,-7.04638487392892,True,Africa/Luanda,0.0,0,366050.75398913765,435125.1089161298
143,Mucaba,91424787B3952894903684,AGO,ADM2,15.088747671366233,-7.170432777835785,True,Africa/Luanda,0.0,0,335740.3235881146,391974.58171095303
144,Negage,91424787B13670088554329,AGO,ADM2,15.374363500814988,-7.849383177641056,True,Africa/Luanda,1250.0,0,350680.0282243663,414274.3178151214
145,Puri,91424787B4511045932665,AGO,ADM2,15.670458278510983,-7.664465426138624,True,Africa/Luanda,0.0,0,373856.15092860255,445117.55960614834
146,Quimbele,91424787B53455794126322,AGO,ADM2,16.352495462957936,-6.333980421839678,True,Africa/Luanda,792.0,0,355387.2364548252,423173.6559007623
147,Quitexe,91424787B44468501236421,AGO,ADM2,14.908390216314869,-8.068315663964231,True,Africa/Luanda,0.0,0,335231.2209457766,385438.29350242484
148,Sanza Pombo,91424787B23875954822016,AGO,ADM2,16.04721716340524,-7.2322124623592146,True,Africa/Luanda,940.0,0,370345.3225326278,446546.36880954047
149,Songo,91424787B10237640119625,AGO,ADM2,14.783132070884871,-7.14268824128346,True,Africa/Luanda,0.0,0,336050.13254278,392865.1328587702
150,Uige,91424787B56359503590027,AGO,ADM2,15.079201366461351,-7.585616520934347,True,Africa/Luanda,0.0,0,326742.58863186545,381903.62541896274
151,Cuimba,91424787B37316347690487,AGO,ADM2,14.651236666908135,-6.209175570801003,True,Africa/Luanda,541.0,0,312756.91279420047,361258.76509722206
152,Mbanza Congo,91424787B74689305986886,AGO,ADM2,14.175272388610033,-6.3130740311050815,True,Africa/Luanda,0.0,0,315796.1002617953,367913.7081410116
153,Noqui,91424787B72729996019257,AGO,ADM2,13.506246943119596,-6.152823103862228,True,Africa/Luanda,0.0,0,328791.47768873774,387380.6464496187
154,N'Zeto,91424787B91654064928130,AGO,ADM2,13.399360490858825,-7.343603143305359,True,Africa/Luanda,209.0,0,329080.20793634205,389285.39980435587
155,Soyo,91424787B66506918249166,AGO,ADM2,12.723702455670582,-6.299529366075412,True,Africa/Luanda,0.0,0,318467.66378395306,377357.5417332314
156,Tomboco,91424787B25052954178250,AGO,ADM2,13.350813474891842,-6.711398891618692,True,Africa/Luanda,0.0,0,318856.7189879454,374822.9313558789
157,Bobonong,55941954B50535260459809,BWA,ADM2,28.13015616546654,-21.982345341638215,True,Africa/Gaborone,810.0,0,393405.5218008157,481077.98546404246
158,Machaneng,55941954B28903282369970,BWA,ADM2,27.150863919913117,-23.12951493541903,True,Africa/Gaborone,0.0,0,422307.2916500601,519423.4906522907
159,Gaborone,55941954B98371115502172,BWA,ADM2,25.8547425587287,-24.771772611223238,True,Africa/Gaborone,0.0,0,436691.0921662131,533145.8160643391
160,Lethlakane,55941954B49792364057910,BWA,ADM2,24.95071563361367,-21.315589581799927,True,Africa/Gaborone,934.0,0,440522.91922845127,544015.1969560502
161,Mahalapye,55941954B87089695796057,BWA,ADM2,26.333769080157776,-23.259861191718166,True,Africa/Gaborone,0.0,0,423932.6411273474,519383.8780222788
162,Palapye,55941954B44678367556360,BWA,ADM2,27.482234671964857,-22.54749786896825,True,Africa/Gaborone,874.0,0,399155.58288882783,489659.16575843137
163,South East,55941954B89738474745599,BWA,ADM2,25.669614001413372,-25.22575882529379,True,Africa/Gaborone,0.0,0,432122.7597465389,519906.51121293154
164,Serowe,55941954B86221332842775,BWA,ADM2,26.36991189015292,-22.048371228163052,True,Africa/Gaborone,0.0,0,424695.4463449169,515900.84777512396
165,Barolong,55941954B82526344478572,BWA,ADM2,25.423245357664094,-25.5906916738941,True,Africa/Gaborone,1283.0,0,435635.2449475912,527013.7739847007
166,Tuli,55941954B92705944270684,BWA,ADM2,28.14144721485301,-22.777748532580596,True,Africa/Gaborone,0.0,0,402349.7804190466,493903.7231502471
167,Tutume,55941954B61152089533455,BWA,ADM2,25.942326353134305,-20.21722055509579,True,Africa/Gaborone,918.0,0,447947.8722410792,556940.1675077449
168,Ghanzi,55941954B82416766201839,BWA,ADM2,22.598300462094482,-22.294171099749008,True,Africa/Gaborone,0.0,0,444493.8667986923,547805.2910955918
169,Gemsbok,55941954B31216508800768,BWA,ADM2,21.044819883696732,-25.19734616595525,True,Africa/Gaborone,0.0,0,450320.5416889227,554387.037850352
170,Hukunsti,55941954B76527564067138,BWA,ADM2,21.673825899316252,-24.006213303725165,True,Africa/Gaborone,1144.0,0,449349.9958246443,553243.3564140145
171,Tshabong,55941954B45615354641166,BWA,ADM2,22.417363898399298,-25.751339508418642,True,Africa/Gaborone,0.0,0,452732.07614274864,553116.7906287708
172,Kgatleng,55941954B56458887922680,BWA,ADM2,26.350889685767516,-24.15170357770292,True,Africa/Gaborone,0.0,0,420184.98390201555,511830.3195697137
173,Ngwaketse Central,55941954B20262478145890,BWA,ADM2,24.863980101099184,-25.033855890158325,True,Africa/Gaborone,1183.0,0,424509.1435142478,518071.88141924876
174,Kweneng North,55941954B84762067272179,BWA,ADM2,25.60767208094914,-23.791054059299107,True,Africa/Gaborone,0.0,0,439286.20735659637,536930.5421772067
175,Ngamiland West,55941954B78250687153975,BWA,ADM2,21.948945315540744,-19.498107004089093,True,Africa/Gaborone,0.0,0,426639.8815003402,528845.6903311122
176,Kweneng South,55941954B98579419812372,BWA,ADM2,24.352723749966206,-23.888531536435046,True,Africa/Gaborone,1091.0,0,431076.44188246795,532949.2795022335
177,Masungu,55941954B39393851070434,BWA,ADM2,27.565172881452987,-21.016704977477172,True,Africa/Gaborone,0.0,0,430758.9029531931,535453.2537751643
178,Chobe,55941954B34591946516146,BWA,ADM2,24.802685292141796,-18.5135937819488,True,Africa/Gaborone,1001.0,0,426453.0330570417,529075.6437454966
179,Ngamiland East,55941954B40687665076650,BWA,ADM2,23.689142651772915,-19.737517697378344,True,Africa/Gaborone,0.0,0,426079.4910149762,523794.1433266904
180,Ngwaketse North,55941954B26927140411587,BWA,ADM2,24.10346893062312,-24.595153540567946,True,Africa/Gaborone,1097.0,0,442411.4516364237,544950.7266330747
181,Ngwaketse South,55941954B49613130605683,BWA,ADM2,24.808181840294996,-25.45279018494473,True,Africa/Gaborone,0.0,0,421541.60048539325,513663.62528634846
182,Djando,10938185B42418571168375,COM,ADM2,43.81365146206366,-12.354404717664488,True,Indian/Comoro,354.0,0,410218.40907525015,518775.13796531205
183,Domoni,10938185B41806506469500,COM,ADM2,44.48595432053558,-12.191502645682927,True,Indian/Comoro,0.0,0,405059.74890582106,506067.108148293
184,Fomboni,10938185B23268545061954,COM,ADM2,43.71777365123775,-12.295158585609192,True,Indian/Comoro,0.0,0,404557.8722607094,509678.9474574516
185,Hamahamet-Mboinkou,10938185B70444296254874,COM,ADM2,43.37940434684201,-11.48572867936723,True,Indian/Comoro,0.0,0,414993.9002748991,516167.17487367685
186,Hambou,10938185B8813398551192,COM,ADM2,43.32268643619443,-11.818366688748194,True,Indian/Comoro,667.0,0,392318.73373005586,492005.29063974007
187,Itsandra-Hamanvou,10938185B82482804134728,COM,ADM2,43.30180504862568,-11.61233341979502,True,Indian/Comoro,0.0,0,379167.9086084233,472872.6077973341
188,Kartala,10938185B58200193875213,COM,ADM2,43.365304149989065,-11.764632975540783,True,Indian/Comoro,1998.0,0,334921.3906042412,357677.2040224707
189,Mbadjini Est,10938185B84550121750878,COM,ADM2,43.4489953825202,-11.836156284545233,True,Indian/Comoro,0.0,0,361205.1131661943,449867.3883609349
190,Mbadjini Ouest,10938185B5285365051467,COM,ADM2,43.401144226833225,-11.844543341923975,True,Indian/Comoro,0.0,0,374235.9826682375,466541.8960310943
191,Mitsamiouli-Mboudé,10938185B67203865227918,COM,ADM2,43.322215696267925,-11.437639290655897,True,Indian/Comoro,649.0,0,377310.3682099809,465260.56490314123
192,Moroni-Bambao,10938185B83767222062315,COM,ADM2,43.28990471131911,-11.747836259618563,True,Indian/Comoro,0.0,0,359847.30461596494,441806.9656447459
193,Mrémani,10938185B83207987774368,COM,ADM2,44.49979167722357,-12.325958522188001,True,Indian/Comoro,617.0,0,395735.8915492472,497918.97335321514
194,Mutsamudu,10938185B74704582538531,COM,ADM2,44.38700857839102,-12.193170467273452,True,Indian/Comoro,0.0,0,375151.26219586586,471917.5477229598
195,Nioumachioi,10938185B46959303700006,COM,ADM2,43.68853199082212,-12.326426738394172,True,Indian/Comoro,270.0,0,402770.67255939,504556.9592393712
196,Oichili-Dimani,10938185B16841428111903,COM,ADM2,43.3761868687089,-11.661180852459761,True,Indian/Comoro,0.0,0,372007.684989926,466273.0174308323
197,Ouani,10938185B16418977449415,COM,ADM2,44.450747265436895,-12.167471675496753,True,Indian/Comoro,0.0,0,375710.0086739192,441000.9066426943
198,Sima,10938185B89113061759376,COM,ADM2,44.37001230244833,-12.237261457986842,True,Indian/Comoro,234.0,0,350012.48144428985,431884.36706016515
199,Aba,63176286B20411552692002,COD,ADM2,30.237603572945616,3.858594507163059,True,Africa/Kinshasa,0.0,180,356591.70911624096,430329.05519155005
200,Aketi,63176286B77771623677962,COD,ADM2,23.75512109096965,2.9797174569254397,True,Africa/Kinshasa,0.0,180,351906.4242794685,419490.96136346966
201,Ango,63176286B24678106401017,COD,ADM2,26.074994594493724,4.4732059729472775,True,Africa/Kinshasa,600.0,180,373699.9147691512,449133.0213173564
202,Ariwara,63176286B55306571020797,COD,ADM2,30.707063198699114,3.135785708050908,True,Africa/Kinshasa,0.0,180,372954.51837763446,452122.9892315361
203,Aru,63176286B14719092717616,COD,ADM2,30.53843928035089,3.070589661199835,True,Africa/Kinshasa,0.0,180,370477.37042005337,449327.3631176931
204,Bafwasende,63176286B50174012793828,COD,ADM2,26.997212807744166,0.7350719801150484,True,Africa/Kinshasa,0.0,180,328724.6297376593,387179.34498619253
205,Bagata,63176286B20425932648522,COD,ADM2,17.711352686339474,-3.904098091913511,True,Africa/Kinshasa,383.0,0,357186.42543861317,426378.6505576756
206,Bambesa,63176286B69142293994365,COD,ADM2,25.97140557410965,3.093267587859085,True,Africa/Kinshasa,0.0,180,353458.6858142038,422998.13756414055
207,Banalia,63176286B83745324886444,COD,ADM2,25.458862774431914,1.5836720772773931,True,Africa/Kinshasa,444.0,180,333922.2628544603,396951.40541521943
208,Bandundu,63176286B76945459106625,COD,ADM2,17.444417533698186,-3.3167698387270725,True,Africa/Kinshasa,0.0,0,353025.6734258091,421013.08557449473
209,Bangu,63176286B31425721317411,COD,ADM2,14.452689716625297,-5.557167829711937,True,Africa/Kinshasa,0.0,0,321951.5767930258,377082.257877448
210,Baraka,63176286B52252759567832,COD,ADM2,29.092925497343543,-4.0896168344608075,True,Africa/Kinshasa,776.0,0,366754.0318422768,441176.2770534558
211,Basankusu,63176286B59821830207387,COD,ADM2,20.001171067611878,1.08785084136678,True,Africa/Kinshasa,348.0,180,342389.9296948253,406496.28921902424
212,Basoko,63176286B83726148102259,COD,ADM2,23.972240283267116,1.7403762654215256,True,Africa/Kinshasa,0.0,180,343161.8322887047,406931.7359548013
213,Befale,63176286B4133354906354,COD,ADM2,21.154227527515992,0.5020916304421283,True,Africa/Kinshasa,0.0,180,341641.8537750004,401980.4531394372
214,Bena-Dibele,63176286B9358277012481,COD,ADM2,22.909861021714313,-4.229998331658,True,Africa/Kinshasa,555.0,0,337964.8677697057,398353.5138194583
215,Beni,63176286B12710938610069,COD,ADM2,29.456748897074302,0.4752343022674213,True,Africa/Kinshasa,0.0,180,342594.0094993962,397518.54246529733
216,Bikoro,63176286B68262610189121,COD,ADM2,18.186702800356695,-0.8098346535836755,True,Africa/Kinshasa,318.0,0,341476.7338255647,402864.90974047646
217,Boende,63176286B77918114228452,COD,ADM2,20.998048671206185,-0.49459010037958867,True,Africa/Kinshasa,0.0,0,335059.94549682987,391940.6248033908
218,Bokungu,63176286B49430673132917,COD,ADM2,22.196895677936833,-0.8527981637149232,True,Africa/Kinshasa,439.0,0,330425.1282005244,389119.2019517308
219,Bolobo,63176286B21856672762157,COD,ADM2,16.3817085825673,-2.6845102505740575,True,Africa/Kinshasa,0.0,0,338273.21219387976,400299.7041423531
220,Bolomba,63176286B53001735211155,COD,ADM2,19.24478932679764,0.4024744437881962,True,Africa/Kinshasa,0.0,180,338746.0665213773,400339.09396756435
221,Boma,63176286B538038850114,COD,ADM2,13.053684258822235,-5.812302239643358,True,Africa/Kinshasa,20.0,0,329544.8051987562,388047.436207306
222,Bomongo,63176286B36806520086654,COD,ADM2,18.29650228624593,1.050911589976589,True,Africa/Kinshasa,0.0,180,340694.34036219603,407126.2715125784
223,Bondo,63176286B80368275017521,COD,ADM2,24.099438676527388,4.19504226978131,True,Africa/Kinshasa,0.0,180,364648.43630841526,438231.36046668765
224,Bongandanga,63176286B86504731111535,COD,ADM2,21.19692945130558,1.5780263943887132,True,Africa/Kinshasa,0.0,180,339724.88943241327,400831.16765025933
225,Bosobolo,63176286B50098701443330,COD,ADM2,19.79008154985846,4.550981049711187,True,Africa/Kinshasa,478.0,180,354828.92567864526,427712.1923437795
226,Budjala,63176286B30356596276779,COD,ADM2,19.960067222045993,2.5335076441033935,True,Africa/Kinshasa,0.0,180,348773.7133638796,417329.52128794865
227,Bukama,63176286B12691977822681,COD,ADM2,26.12740377970001,-8.848929714095961,True,Africa/Kinshasa,569.0,0,396218.7399911591,480242.10111433774
228,Bukavu,63176286B64827262038855,COD,ADM2,28.844424079917314,-2.500180275012202,True,Africa/Kinshasa,0.0,0,337781.2435717641,388255.36228382756
229,Bulungu,63176286B11990771214401,COD,ADM2,18.690772880500592,-4.659149381039065,True,Africa/Kinshasa,0.0,0,344101.1282709925,408469.19969488983
230,Bumba,63176286B7674321742221,COD,ADM2,22.531475974252643,2.5489599236109464,True,Africa/Kinshasa,471.0,180,349438.5135344448,416105.37120702094
231,Bunia,63176286B65216379244562,COD,ADM2,30.25880608712133,1.5457029755393994,True,Africa/Kinshasa,0.0,180,367156.2410803956,443288.63260973064
232,Businga,63176286B10859728267394,COD,ADM2,20.931565857893307,3.3927704116385935,True,Africa/Kinshasa,0.0,180,354506.3107358196,421867.99822588114
233,Buta,63176286B70684258400559,COD,ADM2,25.17195209920268,2.817752560310353,True,Africa/Kinshasa,484.0,180,342415.2682176484,408780.7575409692
234,Butembo,63176286B17770065929195,COD,ADM2,29.285618021035603,0.13904018877267368,True,Africa/Kinshasa,0.0,180,325155.4559881727,388476.61039823113
235,Dekese,63176286B23528212594514,COD,ADM2,21.37280300755995,-3.287996348572721,True,Africa/Kinshasa,451.0,0,334994.46910621016,393328.84657893446
236,Demba,63176286B65160793690884,COD,ADM2,22.258062225069438,-5.343026146303904,True,Africa/Kinshasa,0.0,0,345111.3349506827,405212.83382859564
237,Dibaya,63176286B23998883625218,COD,ADM2,22.77776204736386,-6.37956336164352,True,Africa/Kinshasa,802.0,0,351578.9289125863,415495.65601177653
238,Dibaya-Lubwe,63176286B25992661497472,COD,ADM2,19.86548643158593,-4.1547558028548215,True,Africa/Kinshasa,0.0,0,345404.84361528716,409250.5134044767
239,Dilolo,63176286B33518015273847,COD,ADM2,23.221979131482982,-10.560429986192657,True,Africa/Kinshasa,0.0,0,381714.4321965194,462895.98842922685
240,Dimbelenge,63176286B75664078742838,COD,ADM2,22.947925398021013,-5.133002803733529,True,Africa/Kinshasa,594.0,0,342838.0904670184,404644.7851929498
241,Dingila,63176286B70830242214620,COD,ADM2,26.073856222766196,3.6507047974250986,True,Africa/Kinshasa,0.0,180,360300.6980437493,432902.7165860378
242,Djolu,63176286B56364191841329,COD,ADM2,22.45208886858669,0.7022924806757601,True,Africa/Kinshasa,441.0,180,335989.96968548896,398302.4331580305
243,Djugu,63176286B65133649587609,COD,ADM2,30.381372943364006,1.9012085096984876,True,Africa/Kinshasa,0.0,180,329662.49720181024,396805.5672857343
244,Dungu,63176286B6974395638231,COD,ADM2,28.415642899831013,4.072065215272912,True,Africa/Kinshasa,0.0,180,375429.9914676583,454071.7110303386
245,Faradje,63176286B94121502354965,COD,ADM2,29.977148146454223,3.536251408344748,True,Africa/Kinshasa,870.0,180,353444.96115851926,423203.0425327623
246,Feshi,63176286B93121803325272,COD,ADM2,18.318413038799626,-6.296422042196213,True,Africa/Kinshasa,0.0,0,346689.4548147643,410713.88805525535
247,Fizi,63176286B21708239892428,COD,ADM2,28.83219880807267,-4.2760051782148105,True,Africa/Kinshasa,1143.0,0,305392.8371031176,352825.1462441152
248,Gbadolite,63176286B98421000452360,COD,ADM2,20.877408807323558,4.280485381304087,True,Africa/Kinshasa,0.0,180,362032.17099087423,436039.1586895541
249,Gemena,63176286B43464771754704,COD,ADM2,19.69414411850698,3.4003405582246726,True,Africa/Kinshasa,403.0,180,356213.9335038823,426540.631883734
250,Goma,63176286B45383896961526,COD,ADM2,29.196520440801628,-1.6566758088106945,True,Africa/Kinshasa,0.0,0,348868.1522043093,409898.26112493844
251,Gungu,63176286B71176382547280,COD,ADM2,19.27494252391683,-5.770223323058769,True,Africa/Kinshasa,0.0,0,351789.25607005844,415675.9506477931
252,Idiofa,63176286B53815785774290,COD,ADM2,19.52730930985632,-4.674163848386391,True,Africa/Kinshasa,431.0,0,345003.49977506226,406810.58778358327
253,Idjwi,63176286B68411895895174,COD,ADM2,29.085309589840485,-2.0195146070299708,True,Africa/Kinshasa,0.0,0,384876.36695581593,458740.39068004105
254,Ikela,63176286B75913983063727,COD,ADM2,23.26044765079312,-1.18623815968367,True,Africa/Kinshasa,430.0,0,335558.6551655848,397012.7257712343
255,Ilebo,63176286B19501088760626,COD,ADM2,20.558840525735036,-5.041399134586538,True,Africa/Kinshasa,0.0,0,339579.7532431999,400171.4699762694
256,Ingbokolo,63176286B90733061522477,COD,ADM2,30.768488330511097,3.397612149509682,True,Africa/Kinshasa,1227.0,180,380227.0733354924,464644.8702400448
257,Ingende,63176286B3271137171664,COD,ADM2,19.39781037881498,-0.6024675974584681,True,Africa/Kinshasa,0.0,0,341374.9381344124,402580.6135803913
258,Inkisi,63176286B22382339186814,COD,ADM2,15.097118044974646,-5.140285517266457,True,Africa/Kinshasa,0.0,0,338350.30508970673,395886.35033990804
259,Inongo,63176286B68796769615290,COD,ADM2,18.15887056425082,-1.9220108794398654,True,Africa/Kinshasa,0.0,0,338197.3989524101,400917.3925730173
260,Irumu,63176286B75372177576839,COD,ADM2,29.91947048511645,1.2282668808591153,True,Africa/Kinshasa,1244.0,180,337641.9181007555,403778.2100772606
261,Isangi,63176286B30130216174864,COD,ADM2,24.20374290056449,0.5304066958574462,True,Africa/Kinshasa,0.0,180,336772.1802202589,400223.6174354078
262,Isiro,63176286B55213243416233,COD,ADM2,27.63556874626901,2.7675298342287555,True,Africa/Kinshasa,0.0,180,347792.9811463824,414401.2143841588
263,Kabalo,63176286B58583497580401,COD,ADM2,26.89198365805473,-6.254709549515943,True,Africa/Kinshasa,566.0,0,370992.76240843406,448253.78206251055
264,Kabambare,63176286B85957320837216,COD,ADM2,27.725806402897714,-4.5475964065054555,True,Africa/Kinshasa,0.0,0,345140.4116858796,413084.26319466915
265,Kabare,63176286B3160723083670,COD,ADM2,28.636765449585997,-2.4297454129139804,True,Africa/Kinshasa,0.0,0,307642.35627696523,355243.2201695683
266,Kabeya-Kamwanga,63176286B62322725812229,COD,ADM2,23.17572005048708,-5.966817693738845,True,Africa/Kinshasa,557.0,0,349221.8238493222,412939.5918492556
267,Kabinda,63176286B78021290688444,COD,ADM2,24.638428047145496,-6.130447570281868,True,Africa/Kinshasa,0.0,0,345052.64088138856,407831.9443254932
268,Kabongo,63176286B531915432051,COD,ADM2,25.589803522756124,-7.0809536479959565,True,Africa/Kinshasa,851.0,0,353718.16005213273,422160.45268034254
269,Kahemba,63176286B37251946319002,COD,ADM2,18.999742054281704,-7.305244881799209,True,Africa/Kinshasa,0.0,0,355944.9355124374,423200.37813876016
270,Kailo,63176286B17504702690240,COD,ADM2,25.685946761630888,-2.5044899776375744,True,Africa/Kinshasa,0.0,0,334120.10821713577,392657.27364423004
271,Kalehe,63176286B48907865482387,COD,ADM2,28.641674786469675,-2.0526182699119775,True,Africa/Kinshasa,1120.0,0,344892.6674087902,399514.898172203
272,Kalemie,63176286B6958016734749,COD,ADM2,28.92658491746444,-5.958041605632893,True,Africa/Kinshasa,0.0,0,367126.3610129933,446766.3531565621
273,Kalima,63176286B20601319898864,COD,ADM2,26.557971061044412,-2.5118823200544202,True,Africa/Kinshasa,0.0,0,332499.7374296936,385571.05355745717
274,Kambove,63176286B84034630662614,COD,ADM2,26.5895554994215,-11.297755172421269,True,Africa/Kinshasa,1459.0,0,394302.27693568857,482261.93696151994
275,Kamiji,63176286B35852451405101,COD,ADM2,23.22683166038807,-6.7041789814600055,True,Africa/Kinshasa,0.0,0,366278.57743056817,435815.6028667523
276,Kamina,63176286B31000864957103,COD,ADM2,24.922249240921065,-8.769243291184203,True,Africa/Kinshasa,0.0,0,377050.17970120296,455058.55301210994
277,Kamituga,63176286B35677174574617,COD,ADM2,28.192832390587686,-3.060177726448676,True,Africa/Kinshasa,1044.0,0,334181.05892607925,385540.6641067751
278,Kamonia,63176286B40120828568077,COD,ADM2,20.720128783053138,-6.543169072902829,True,Africa/Kinshasa,0.0,0,355124.98932973226,417831.3680235301
279,Kananga,63176286B7058717383424,COD,ADM2,22.46802923581797,-5.893836678309568,True,Africa/Kinshasa,0.0,0,351853.1209716203,414283.3925301629
280,Kaniama,63176286B16885288794784,COD,ADM2,24.154971774153594,-7.867826776421016,True,Africa/Kinshasa,982.0,0,372660.1418622328,448075.84365991194
281,Kaoze,63176286B47747519497786,COD,ADM2,29.777224337114784,-7.046799033265491,True,Africa/Kinshasa,0.0,0,398645.6827374509,489073.0563407185
282,Kapanga,63176286B41140464701712,COD,ADM2,22.79767765129005,-8.411654466833086,True,Africa/Kinshasa,922.0,0,375433.3082924639,450386.96970876
283,Kasaji,63176286B96753486418064,COD,ADM2,23.452260967782287,-10.36055998266842,True,Africa/Kinshasa,0.0,0,383758.3220059333,465597.62999135547
284,Kasangulu,63176286B98008703469616,COD,ADM2,15.346441569431768,-4.784290280564814,True,Africa/Kinshasa,0.0,0,338548.31243229646,399079.11465426366
285,Kasenga,63176286B77262619841164,COD,ADM2,27.962285564828296,-10.455439562789469,True,Africa/Kinshasa,0.0,0,393671.03605110967,479231.1888340194
286,Kasongo,63176286B88012685356826,COD,ADM2,26.459434843363596,-4.364579457603553,True,Africa/Kinshasa,555.0,0,343593.64350420097,407611.62998173694
287,Kasongo-Lunda,63176286B94968684087840,COD,ADM2,17.581580802403657,-7.049131073805935,True,Africa/Kinshasa,0.0,0,348207.8960636138,408368.8349249163
288,Katako-Kombe,63176286B65571818133367,COD,ADM2,24.398065041570057,-3.2883117589500395,True,Africa/Kinshasa,0.0,0,340462.8112614665,404350.9666590113
289,Katanda,63176286B83227238071318,COD,ADM2,23.89070008898546,-6.089645169974213,True,Africa/Kinshasa,545.0,0,356793.14721936156,424467.4933292831
290,Kazumba,63176286B97272919542005,COD,ADM2,21.97982699267108,-6.433851797675646,True,Africa/Kinshasa,0.0,0,359675.1881906346,428556.7550118305
291,Kenge,63176286B18264844623742,COD,ADM2,17.020969953062245,-5.023124479084083,True,Africa/Kinshasa,0.0,0,356244.43991182296,425500.75229085324
292,Kibombo,63176286B11141066261470,COD,ADM2,25.427387140507083,-4.070632669144754,True,Africa/Kinshasa,517.0,0,339023.8909559765,402642.6528961741
293,Kikwit,63176286B32367911689095,COD,ADM2,18.80415600334537,-5.055677419667129,True,Africa/Kinshasa,0.0,0,349962.5347837441,412930.29992212064
294,Kimvula,63176286B83971453832478,COD,ADM2,16.0384654001612,-5.451827858776001,True,Africa/Kinshasa,724.0,0,346709.64363923925,409364.4294565797
295,Kindu,63176286B62585085359897,COD,ADM2,25.91535330802656,-2.965973606092693,True,Africa/Kinshasa,0.0,0,335083.29501697805,393372.9103666732
296,Kinshasa,63176286B79360907689545,COD,ADM2,15.911972620326273,-4.439265329512575,True,Africa/Kinshasa,0.0,0,341745.12448756106,400497.98908524134
297,Kipushi,63176286B75279003671986,COD,ADM2,27.865350185576233,-11.587751616386047,True,Africa/Kinshasa,0.0,0,400797.92804988084,491155.4780300903
298,Kiri,63176286B37259268611319,COD,ADM2,19.208757282949783,-1.6167938320234025,True,Africa/Kinshasa,319.0,0,335859.59948263376,397146.5765681019
299,Kisangani,63176286B93910554563220,COD,ADM2,25.211392888950236,0.5281475868835159,True,Africa/Kinshasa,0.0,180,331486.64319003694,392327.4117202397
300,Kole,63176286B77592742780307,COD,ADM2,22.607595916792985,-3.622275254841283,True,Africa/Kinshasa,0.0,0,333889.51970872603,393294.731126765
301,Kolwezi,63176286B76187105234082,COD,ADM2,25.48490825637115,-10.750266929439482,True,Africa/Kinshasa,1536.0,0,391544.9324276604,471317.7777737
302,Kongolo,63176286B90330150002289,COD,ADM2,26.848885080307603,-5.368331058757573,True,Africa/Kinshasa,0.0,0,352776.4805462476,425162.9131317977
303,Kungu,63176286B55786633055845,COD,ADM2,18.75190603129639,2.4799541817292825,True,Africa/Kinshasa,347.0,180,340576.87377226126,404589.0822220666
304,Kutu,63176286B54443714119434,COD,ADM2,18.23408151559959,-2.981993115522846,True,Africa/Kinshasa,0.0,0,345502.02495356556,409682.24771872465
305,Kwamouth,63176286B12311619160810,COD,ADM2,16.67792193845672,-3.578864882643459,True,Africa/Kinshasa,444.0,0,349988.5815486976,419051.89078008966
306,Libenge,63176286B16720510237815,COD,ADM2,18.984040895859017,3.8808677635034474,True,Africa/Kinshasa,0.0,180,351680.3044450881,419952.2106223936
307,Likasi,63176286B59059722008658,COD,ADM2,26.738331567092654,-10.976131032716538,True,Africa/Kinshasa,0.0,0,403553.2062222009,495342.0440033666
308,Lisala,63176286B55618881730154,COD,ADM2,20.981623448152206,2.4330947996196373,True,Africa/Kinshasa,392.0,180,345210.4753006326,410763.87560493796
309,Lodja,63176286B24830189223330,COD,ADM2,23.452201136047567,-3.560946435845287,True,Africa/Kinshasa,0.0,0,338308.24464136775,396677.1672910543
310,Lomela,63176286B89784390033972,COD,ADM2,23.30282773940835,-2.331674657479646,True,Africa/Kinshasa,465.0,0,325013.358926081,381014.5596191358
311,Lubao,63176286B12881144084902,COD,ADM2,25.433906167966576,-5.558674599286365,True,Africa/Kinshasa,0.0,0,356156.6791260728,426254.5159281188
312,Lubefu,63176286B49230128630829,COD,ADM2,24.322271923275814,-4.686366262850511,True,Africa/Kinshasa,0.0,0,337557.5108476716,395480.8516321771
313,Lubero,63176286B45916106821058,COD,ADM2,28.812493754173314,-0.0053532593844243725,True,Africa/Kinshasa,1071.0,0,316606.39232656464,362006.621927588
314,Lubudi,63176286B52782039621830,COD,ADM2,26.136582100709543,-10.22487814505014,True,Africa/Kinshasa,0.0,0,396702.7027236619,485009.5799616778
315,Lubumbashi,63176286B7033307846906,COD,ADM2,27.46542017635477,-11.663254992447584,True,Africa/Kinshasa,0.0,0,414703.76342697395,512149.76238142257
316,Lubutu,63176286B14336347527587,COD,ADM2,26.808050944398854,-0.783328382900158,True,Africa/Kinshasa,586.0,0,322554.518700404,374555.81342749903
317,Luebo,63176286B69668932062204,COD,ADM2,21.375267528611644,-5.660151632462826,True,Africa/Kinshasa,0.0,0,357460.7699264211,424990.62052209245
318,Luilu,63176286B70348427219396,COD,ADM2,23.603347007837954,-7.343020993868272,True,Africa/Kinshasa,0.0,0,365846.5991124203,437492.2438196689
319,Luiza,63176286B81146580347594,COD,ADM2,22.556719717891394,-7.3384741122166295,True,Africa/Kinshasa,849.0,0,358948.4451327046,429391.8056711103
320,Lukalaba,63176286B63969135863157,COD,ADM2,23.653774159250393,-6.481582788905206,True,Africa/Kinshasa,0.0,0,366400.62617943325,435001.33379189175
321,Lukolela,63176286B14204108243102,COD,ADM2,17.148731545566083,-1.3875474555773437,True,Africa/Kinshasa,324.0,0,337192.19925223547,398701.3608420748
322,Lukula,63176286B65126745094635,COD,ADM2,12.841178170977075,-5.392716515907763,True,Africa/Kinshasa,0.0,0,301272.2644801155,348642.1315618758
323,Luozi,63176286B40063645047483,COD,ADM2,13.94807590751938,-4.8153893630809534,True,Africa/Kinshasa,0.0,0,312800.1448781717,366780.74893038755
324,Lupatapata,63176286B66669834222633,COD,ADM2,23.555890339042172,-5.973449266225795,True,Africa/Kinshasa,689.0,0,353149.62062565045,415966.0958104544
325,Lusambo,63176286B30844666641598,COD,ADM2,23.578820023027212,-5.002714659874919,True,Africa/Kinshasa,0.0,0,344687.88601072086,405469.3407932649
326,Madimba,63176286B8336769847246,COD,ADM2,15.507788790661728,-5.3930294711711575,True,Africa/Kinshasa,0.0,0,338469.2932792495,392929.3050176312
327,Mahagi,63176286B15680618396169,COD,ADM2,30.836615088020896,2.0691721418927504,True,Africa/Kinshasa,2016.0,180,360949.78835351806,439283.3543447457
328,Makanza,63176286B16264123188485,COD,ADM2,18.931828121520617,1.4012273953928476,True,Africa/Kinshasa,0.0,180,350928.8422308744,421017.1009636363
329,Malemba-Nkulu,63176286B11863220768150,COD,ADM2,26.86788463679509,-7.920615531666633,True,Africa/Kinshasa,0.0,0,384541.08179526805,466791.9278966422
330,Mambasa,63176286B5401694360976,COD,ADM2,28.781571647692108,1.4932035002862025,True,Africa/Kinshasa,877.0,180,344860.6308781719,406576.5475057051
331,Mangai,63176286B5937777491698,COD,ADM2,19.53239817277753,-4.059981152624937,True,Africa/Kinshasa,0.0,0,339738.08150897536,401863.11414636794
332,Manono,63176286B74212537268608,COD,ADM2,27.56829774677935,-7.21160468253762,True,Africa/Kinshasa,691.0,0,370612.00074349437,447040.766906078
333,Masi-Manimba,63176286B37254158064276,COD,ADM2,17.980640037088797,-5.107663128867472,True,Africa/Kinshasa,0.0,0,341032.20575545327,401220.0690335614
334,Masisi,63176286B62559292775761,COD,ADM2,28.847298122396584,-1.4116325911311807,True,Africa/Kinshasa,0.0,0,316811.57604985347,366304.43913647975
335,Matadi,63176286B7026545207042,COD,ADM2,13.462179469237922,-5.838097215545574,True,Africa/Kinshasa,169.0,0,319880.9014531967,379786.86739569023
336,Mbandaka,63176286B82661241826895,COD,ADM2,18.258026368492363,-0.09875708795007351,True,Africa/Kinshasa,0.0,0,339777.5366104678,400185.6850532629
337,Mbanza-Ngungu,63176286B82592558575614,COD,ADM2,14.7883090146092,-5.3426113373894575,True,Africa/Kinshasa,527.0,0,328219.23893423384,382019.82824498456
338,Mbuji-Mayi,63176286B79011641071296,COD,ADM2,23.595706539044293,-6.115957554437116,True,Africa/Kinshasa,0.0,0,356320.72203184373,421603.2239266467
339,Miabi,63176286B13611321695248,COD,ADM2,23.296821631130857,-6.329690047934737,True,Africa/Kinshasa,0.0,0,363924.47092233715,432957.3469293007
340,Mitwaba,63176286B64695958976401,COD,ADM2,27.19382255709734,-9.201553293631688,True,Africa/Kinshasa,0.0,0,386198.7480677943,463442.8177092944
341,Moanda,63176286B88277060419996,COD,ADM2,12.814550516142571,-5.772412988200603,True,Africa/Kinshasa,18.0,0,316515.09779695637,371081.95045056305
342,Moba,63176286B25314267977171,COD,ADM2,29.7751775050109,-6.981444265126959,True,Africa/Kinshasa,0.0,0,394571.85701762687,484424.17652127106
343,Mobayi-Mbongo,63176286B77587123851522,COD,ADM2,21.03920645695522,4.081990694242281,True,Africa/Kinshasa,506.0,180,357498.29667964485,427978.42511524644
344,Mongwalu,63176286B9060730940258,COD,ADM2,30.239287933101995,1.819211819212477,True,Africa/Kinshasa,0.0,180,339171.5057105777,409597.75261924893
345,Monkoto,63176286B4277783159614,COD,ADM2,20.927932541339647,-1.6429916817700179,True,Africa/Kinshasa,423.0,0,328993.8687259877,385132.84733900044
346,Mushie,63176286B59505490488503,COD,ADM2,17.18312986284381,-2.5176402772816706,True,Africa/Kinshasa,0.0,0,349201.92202740646,415000.67136901047
347,Mutshatsha,63176286B57018267641486,COD,ADM2,25.056907880770588,-10.767395889012624,True,Africa/Kinshasa,0.0,0,383457.11508555885,462502.435210414
348,Mweka,63176286B85649689551019,COD,ADM2,21.62701784511852,-4.537555800458425,True,Africa/Kinshasa,598.0,0,338931.31301690603,398913.4845079157
349,Mwene-Ditu,63176286B28359889537852,COD,ADM2,23.476641140940444,-6.987421054869052,True,Africa/Kinshasa,0.0,0,368843.0375274949,440508.87312746595
350,Mwenga,63176286B33283671139480,COD,ADM2,28.369424039425954,-3.3289499643960063,True,Africa/Kinshasa,1413.0,0,318629.8606895835,369255.4480438326
351,Namoya,63176286B36790783393673,COD,ADM2,27.57109121700006,-4.00767207466663,True,Africa/Kinshasa,0.0,0,344563.80533245805,401327.1770863959
352,Ngandajika,63176286B5322857834849,COD,ADM2,24.260552079042526,-6.721413561177319,True,Africa/Kinshasa,0.0,0,373543.44048722804,446515.59881648415
353,Niangara,63176286B33291186627226,COD,ADM2,27.90031144698453,3.513711546784062,True,Africa/Kinshasa,733.0,180,370397.60639826674,448895.31616175256
354,Nioki,63176286B71096802464930,COD,ADM2,17.68235499369659,-2.7004464376133357,True,Africa/Kinshasa,0.0,0,347215.0515217348,413617.05884324136
355,Nyiragongo,63176286B84996923503616,COD,ADM2,29.273217377100455,-1.541109897290011,True,Africa/Kinshasa,2334.0,0,298694.6571914227,349467.2144147971
356,Nyunzu,63176286B34424841963647,COD,ADM2,27.934697536247374,-5.730985118869067,True,Africa/Kinshasa,0.0,0,353639.8255597183,424819.87988258403
357,Oïcha,63176286B86170870415972,COD,ADM2,29.547110983206107,0.42296875379347004,True,Africa/Kinshasa,0.0,180,346188.1217472713,410683.54523776344
358,Opala,63176286B48725841971461,COD,ADM2,24.36786968858512,-0.7570960279291665,True,Africa/Kinshasa,430.0,0,324947.6695589492,382114.64266509726
359,Oshwe,63176286B4112889633509,COD,ADM2,19.966618346403635,-3.1011742393309567,True,Africa/Kinshasa,0.0,0,333008.42416468344,391245.98663793347
360,Pangi,63176286B98681964412172,COD,ADM2,26.56624039929518,-3.194254211047349,True,Africa/Kinshasa,0.0,0,332605.46811175783,388711.1487731378
361,Poko,63176286B68044599971787,COD,ADM2,26.82171999825641,3.016616341513167,True,Africa/Kinshasa,709.0,180,348522.2230834334,417651.3267068829
362,Popokabaka,63176286B47421332346835,COD,ADM2,16.57993442250451,-5.646876041097031,True,Africa/Kinshasa,0.0,0,351852.03766900016,416096.5570464806
363,Punia,63176286B1925057871065,COD,ADM2,26.78897709642175,-1.710705581439025,True,Africa/Kinshasa,578.0,0,310510.35367564624,353861.69118827756
364,Pweto,63176286B50481715267247,COD,ADM2,28.504287455313083,-8.641437179532343,True,Africa/Kinshasa,0.0,0,400606.05688457075,490584.3005475605
365,Rungu,63176286B79209138861399,COD,ADM2,27.648489604462384,2.667133612116088,True,Africa/Kinshasa,0.0,180,346522.4701864012,409592.18004194606
366,Rutshuru,63176286B25642850349509,COD,ADM2,29.34450471895474,-1.0306926644235246,True,Africa/Kinshasa,1007.0,0,336908.90176351846,393503.3687682326
367,Sakania,63176286B52056185132037,COD,ADM2,28.926930390164358,-12.571532477989479,True,Africa/Kinshasa,0.0,0,415940.4250926198,513866.7513304553
368,Sandoa,63176286B26674316015082,COD,ADM2,23.02829591374899,-9.444627217463358,True,Africa/Kinshasa,0.0,0,378180.36058574106,455802.49669796886
369,Seke-Banza,63176286B69853523616594,COD,ADM2,13.383585665940522,-5.341456622572162,True,Africa/Kinshasa,399.0,0,296463.0560807612,346141.95975815994
370,Shabunda,63176286B28648737127916,COD,ADM2,27.578139792756808,-2.9099794292747885,True,Africa/Kinshasa,0.0,0,327910.6666555113,375896.5954724742
371,Songololo,63176286B29097498682851,COD,ADM2,14.069701282355915,-5.528226356140357,True,Africa/Kinshasa,0.0,0,316264.8826808429,372746.83522304334
372,Tshela,63176286B47015384768636,COD,ADM2,12.98237646005294,-4.955968500906305,True,Africa/Kinshasa,216.0,0,280380.4123616191,323701.91539301584
373,Tshikapa,63176286B37681851712476,COD,ADM2,20.820050208255484,-6.416694385459091,True,Africa/Kinshasa,0.0,0,356828.528337743,420723.6709788378
374,Tshilenge,63176286B2433914913285,COD,ADM2,23.63852019591668,-6.481222244689905,True,Africa/Kinshasa,745.0,0,364884.83250515145,435725.43167685525
375,Tshimbulu,63176286B74390580243640,COD,ADM2,22.861536875352957,-6.479626815655566,True,Africa/Kinshasa,0.0,0,349562.5416762533,411582.8607004972
376,Tshumbe,63176286B80144027802447,COD,ADM2,22.69423312301346,-4.0420350225602295,True,Africa/Kinshasa,0.0,0,335715.9031037364,393198.0844385033
377,Ubundu,63176286B77989779607321,COD,ADM2,25.57012614199689,-0.5474304894732879,True,Africa/Kinshasa,481.0,0,318437.99627832364,372426.69341444
378,Uvira,63176286B42701779698156,COD,ADM2,29.01409333165549,-3.215791929936154,True,Africa/Kinshasa,0.0,0,342102.0683478563,397910.8160384386
379,Walikale,63176286B33968238717987,COD,ADM2,28.163322729140933,-1.1188516711554117,True,Africa/Kinshasa,1004.0,0,336621.6501692051,376738.6661388393
380,Walungu,63176286B8564391110970,COD,ADM2,28.681750135356836,-2.7254209163015886,True,Africa/Kinshasa,0.0,0,342426.97766926425,397080.92550763744
381,Wamba,63176286B98159467986291,COD,ADM2,27.83921434080175,2.107872939433055,True,Africa/Kinshasa,0.0,180,346685.42419782124,410617.2033869156
382,Watsa,63176286B47500153281287,COD,ADM2,29.259175779331734,2.7379005738595015,True,Africa/Kinshasa,905.0,180,354865.78285931784,422842.3321917509
383,Yahuma,63176286B43218121140485,COD,ADM2,23.143280225410688,0.8412296879611263,True,Africa/Kinshasa,0.0,180,334947.6480449842,395528.7066060696
384,Yakoma,63176286B72804638257173,COD,ADM2,22.229922659139174,3.6433055395325575,True,Africa/Kinshasa,418.0,180,359612.6220980771,430782.5771938231
385,Yangambi,63176286B49026377824569,COD,ADM2,24.481267125536434,0.7852033918637905,True,Africa/Kinshasa,0.0,180,337619.0780634363,399491.2586530965
386,Yumbi,63176286B53648445078824,COD,ADM2,16.536626689865017,-2.1272372370505988,True,Africa/Kinshasa,317.0,0,336797.84795254236,398913.8356109735
387,Zongo,63176286B53748739739840,COD,ADM2,18.69506116861662,4.220876261104908,True,Africa/Kinshasa,0.0,180,358774.97319662216,432126.25370035635
388,Boko-Songho,1427508B92601755498307,COG,ADM2,13.738280384686737,1.7690489067464386,True,Africa/Brazzaville,0.0,180,328642.77089142613,389283.57715246396
389,Loudima,1427508B48531502218736,COG,ADM2,14.374678161141125,-0.10890005327797894,True,Africa/Brazzaville,420.0,0,334750.32065038924,400696.08166511584
390,Madingou,1427508B79538566138262,COG,ADM2,14.81579842020344,-0.7463269891831362,True,Africa/Brazzaville,0.0,0,346607.75423669396,415576.6823920967
391,Nkayi District,1427508B61361969612670,COG,ADM2,13.593317599625822,-2.4825628205573804,True,Africa/Brazzaville,0.0,0,295086.6776629721,340179.5709795506
392,Mouyondzi,1427508B15475197726652,COG,ADM2,13.31477352801898,-2.915427861771103,True,Africa/Brazzaville,532.0,0,282093.23696566187,324628.02140642505
393,Mfouati,1427508B75141491859674,COG,ADM2,11.532306872292004,-3.977704559837191,True,Africa/Brazzaville,0.0,0,287958.61298731697,334164.79715165583
394,Boundji,1427508B27104831936236,COG,ADM2,14.707610680489978,0.5961295144778747,True,Africa/Brazzaville,0.0,180,335006.9988947544,399050.19327050407
395,Loukela,1427508B73097317113528,COG,ADM2,17.255656516928383,1.093754090749576,True,Africa/Brazzaville,334.0,180,339800.9473795335,402737.8209588546
396,Makoua,1427508B79819029922134,COG,ADM2,16.625247748206604,-0.7170637617913015,True,Africa/Brazzaville,0.0,0,342690.63499265997,406553.0108651016
397,Mossaka,1427508B15105578077856,COG,ADM2,15.616332193665754,0.06148186021414904,True,Africa/Brazzaville,0.0,180,346627.4794258624,416330.3693149947
398,Owando,1427508B2711916711363,COG,ADM2,17.800971904346728,0.8451426612265499,True,Africa/Brazzaville,338.0,180,337239.22599514795,403132.1526606759
399,Ewo,1427508B71494423838128,COG,ADM2,15.982914904439122,-1.9289381921218063,True,Africa/Brazzaville,0.0,0,347913.3766267355,413972.4335168754
400,Kelle,1427508B49132157501482,COG,ADM2,15.547815453382034,-1.426062131626871,True,Africa/Brazzaville,413.0,0,351592.0962620919,419424.68151187274
401,Mbomo,1427508B97285860455499,COG,ADM2,15.907385146022913,-0.6127525991262853,True,Africa/Brazzaville,0.0,0,347291.4722170589,415013.01251765934
402,Okoyo,1427508B68234406405678,COG,ADM2,15.202025700133973,-2.486584116857567,True,Africa/Brazzaville,712.0,0,333613.27962084167,389953.8022398665
403,Kakamoeka,1427508B78448203427797,COG,ADM2,14.720454427170331,-1.4695605786819024,True,Africa/Brazzaville,0.0,0,356005.63373400056,422660.7508580086
404,Loandjili (Pointe Noire),1427508B18064452172812,COG,ADM2,15.295857684540133,-0.7870209990008415,True,Africa/Brazzaville,386.0,0,347783.74557795306,415503.5611369551
405,Madingo-Kayes,1427508B65324977052506,COG,ADM2,15.78668032471361,-3.2791753345100583,True,Africa/Brazzaville,0.0,0,344257.44977210165,410035.7891762367
406,Mvouti,1427508B61990320035466,COG,ADM2,15.014888497335605,-3.4009060249012673,True,Africa/Brazzaville,605.0,0,335137.3394691528,391106.74761975056
407,Bambama,1427508B17240885664000,COG,ADM2,14.449349359050156,-3.451815254513864,True,Africa/Brazzaville,0.0,0,311339.8158751994,364266.60522332834
408,Komono,1427508B55030741074917,COG,ADM2,13.910994589690729,-2.996385690075306,True,Africa/Brazzaville,0.0,0,297996.21213397733,342733.03373523324
409,Sibiti,1427508B97911920098137,COG,ADM2,14.430380048582295,-2.303286112457845,True,Africa/Brazzaville,624.0,0,316168.8709921501,360283.0021141834
410,Zanaga,1427508B80151114352270,COG,ADM2,15.424276984445845,-3.9452793295318482,True,Africa/Brazzaville,0.0,0,333425.49501704425,390107.52240872354
411,Dongou,1427508B98957874622899,COG,ADM2,14.853120986939892,-4.29132593648042,True,Africa/Brazzaville,0.0,0,328807.65997444117,384361.87219156686
412,Epena,1427508B94586768331104,COG,ADM2,14.355769068321884,-4.19498269400502,True,Africa/Brazzaville,0.0,0,323271.0794469371,377838.4120051906
413,Impfondo,1427508B40681064196886,COG,ADM2,13.955103189312426,-3.8908002526229684,True,Africa/Brazzaville,445.0,0,313746.8544732527,367946.1725746789
414,Divenie,1427508B11102510825408,COG,ADM2,13.243002862392254,-3.591652192769679,True,Africa/Brazzaville,0.0,0,290276.0938154494,333015.64916505787
415,Kibangou,1427508B61088264973461,COG,ADM2,14.636626059655677,-4.6343339950652,True,Africa/Brazzaville,0.0,0,317978.46008979325,369975.4229595689
416,Kimongo,1427508B96831343191841,COG,ADM2,13.546806612039914,-4.514302804124438,True,Africa/Brazzaville,376.0,0,313390.98931364034,367179.87067584036
417,Louvakou (Loubomo),1427508B57341338749174,COG,ADM2,13.601885452832816,-4.193713903068728,True,Africa/Brazzaville,0.0,0,322795.18501522497,380816.7811846317
418,Mayoko,1427508B56162922568882,COG,ADM2,12.936891262262023,-3.958348135450507,True,Africa/Brazzaville,0.0,0,319764.92958125717,371729.60134351574
419,Mossendjo,1427508B80480986798258,COG,ADM2,12.674996010780559,-3.005594085744766,True,Africa/Brazzaville,408.0,0,282219.2994658004,327632.75256286224
420,Abala,1427508B96787194302936,COG,ADM2,12.569642313819244,-3.9517963209818956,True,Africa/Brazzaville,0.0,0,318733.219328023,372450.2010849851
421,Djambala,1427508B96128266527522,COG,ADM2,12.377152680821476,-4.364785418944116,True,Africa/Brazzaville,0.0,0,275251.88723635254,312739.3308830436
422,Gamboma,1427508B88245699970735,COG,ADM2,11.983476615782973,-4.634357671637832,True,Africa/Brazzaville,92.0,0,283397.89139098465,331115.6398807451
423,Lekana,1427508B16336577504654,COG,ADM2,11.946140657990277,-4.0441479739219925,True,Africa/Brazzaville,0.0,0,294213.0333842643,335346.4226450022
424,Boko,1427508B75307715996039,COG,ADM2,12.744471760214342,-2.2637489435276503,True,Africa/Brazzaville,680.0,0,292145.6074223032,337232.83814647153
425,Kindamba,1427508B11009078407103,COG,ADM2,12.059834166400858,-2.653299755457683,True,Africa/Brazzaville,0.0,0,301421.0063434967,349603.9454187736
426,Kinkala,1427508B20778125990981,COG,ADM2,12.16158711901691,-3.4246946632360693,True,Africa/Brazzaville,153.0,0,308288.6601968071,361741.3294081683
427,Mayama,1427508B81001765289527,COG,ADM2,16.00535923815715,1.1837825636225,True,Africa/Brazzaville,0.0,180,339861.05236503016,404909.5834477537
428,Mindouli,1427508B59827830762916,COG,ADM2,14.822078049913728,1.7321311676008342,True,Africa/Brazzaville,457.0,180,336594.7512678001,404976.17723937315
429,Ngabe,1427508B65710782923529,COG,ADM2,17.563516850853336,2.9488272803985254,True,Africa/Brazzaville,0.0,180,356728.6870589472,428688.1040075525
430,Ngamaba (Brazzaville),1427508B77398983922778,COG,ADM2,17.07654891923456,-0.3518226805531021,True,Africa/Brazzaville,0.0,0,336539.46015855775,398984.91469278355
431,Ouesso,1427508B53261587685070,COG,ADM2,13.190570854278747,-4.56650929868387,True,Africa/Brazzaville,344.0,0,324970.2264339688,381493.67902339954
432,Sembe,1427508B36736410961843,COG,ADM2,13.838680739156095,-4.385160212607302,True,Africa/Brazzaville,0.0,0,307913.33101839136,357779.7511746624
433,Souanke,1427508B74488627772391,COG,ADM2,13.302393647606038,-4.211191504109385,True,Africa/Brazzaville,172.0,0,320338.26570411946,378847.8870376631
434,Bale,67063806B68807156447803,BFA,ADM2,-3.0728930801843,11.72219952282007,True,Africa/Ouagadougou,0.0,180,404087.0829552816,497458.9156170011
435,Mouhoun,67063806B95698273817509,BFA,ADM2,-3.4173417162280124,12.200352240748721,True,Africa/Ouagadougou,0.0,180,413652.93219897576,509145.36447272
436,Nayala,67063806B13297228427715,BFA,ADM2,-3.0238774733312743,12.696521413092194,True,Africa/Ouagadougou,305.0,180,405383.65200566297,498697.0776868872
437,Boulkiemde,67063806B25202403935187,BFA,ADM2,-2.1457934958467626,12.316008553193884,True,Africa/Ouagadougou,0.0,180,414031.0713202619,512888.37392408506
438,Sanguie,67063806B51289395143870,BFA,ADM2,-2.6140110976428166,12.21218075816001,True,Africa/Ouagadougou,0.0,180,418514.7110601424,519252.51102884085
439,Ziro,67063806B63771125198412,BFA,ADM2,-1.8888868941596544,11.635021059687569,True,Africa/Ouagadougou,332.0,180,402997.57570549706,495568.8237707001
440,Bougouriba,67063806B9563364372336,BFA,ADM2,-3.412675080114778,10.847157489220221,True,Africa/Ouagadougou,0.0,180,405506.43529692467,499276.7237559982
441,Houet,67063806B93880456931202,BFA,ADM2,-4.255596968985053,11.291832904878866,True,Africa/Ouagadougou,0.0,180,410968.6714305471,507654.0118207828
442,Tuy,67063806B52798800731394,BFA,ADM2,-3.519166591036941,11.439582273139894,True,Africa/Ouagadougou,313.0,180,409365.6365188923,505299.6807994743
443,Gnagna,67063806B53557788130503,BFA,ADM2,0.019853364404162806,12.94419571360331,True,Africa/Ouagadougou,0.0,180,418530.06100815843,516682.7956948762
444,Gourma,67063806B98154706729521,BFA,ADM2,0.6285168390956911,12.143338219682803,True,Africa/Ouagadougou,283.0,180,408943.10261866415,502618.3132068942
445,Komonjdjari,67063806B37049013397139,BFA,ADM2,0.7301398218836972,12.747972887244943,True,Africa/Ouagadougou,0.0,180,415050.1236914206,514618.4811189946
446,Kouritenga,67063806B40595440400203,BFA,ADM2,-0.31571559593520226,12.192662450098625,True,Africa/Ouagadougou,0.0,180,411129.8611375075,507085.2316116602
447,Kadiogo,67063806B99988316808523,BFA,ADM2,-1.502072751577828,12.322663733336993,True,Africa/Ouagadougou,306.0,180,410680.7291628286,506894.42072718975
448,Ganzourgou,67063806B50041184778807,BFA,ADM2,-0.7734853318032883,12.252400259381277,True,Africa/Ouagadougou,0.0,180,407109.43371155474,501508.09969500505
449,Kourweogo,67063806B35388046796178,BFA,ADM2,-1.8127871266513698,12.625670129947064,True,Africa/Ouagadougou,0.0,180,417050.29880872765,515645.8503066344
450,Oubritenga,67063806B42476727458569,BFA,ADM2,-1.3077903485001638,12.639626013539615,True,Africa/Ouagadougou,319.0,180,420723.4674230524,519442.8846793118
451,Loroum,67063806B11896750408185,BFA,ADM2,-2.169140309778975,13.936714236486614,True,Africa/Ouagadougou,0.0,180,424459.337094937,523836.45570567815
452,Passore,67063806B82563699600395,BFA,ADM2,-2.168893006254392,12.900688160007423,True,Africa/Ouagadougou,0.0,180,413884.7453507874,510955.7163806057
453,Zondoma,67063806B77925181323544,BFA,ADM2,-2.375295098107802,13.195284484656396,True,Africa/Ouagadougou,322.0,180,418416.167154983,518444.1735763174
454,Bazega,67063806B75312427459337,BFA,ADM2,-1.4524007102537062,11.960811916190744,True,Africa/Ouagadougou,0.0,180,409537.2670090688,504000.5429398267
455,Zoundweogo,67063806B75605811528327,BFA,ADM2,-0.9793389107303883,11.571180144098719,True,Africa/Ouagadougou,292.0,180,405115.2222313859,498895.40714820416
456,Bam,67063806B14953893434288,BFA,ADM2,-1.5861562217536644,13.4699891354435,True,Africa/Ouagadougou,0.0,180,421540.3597149821,519876.15483753616
457,Namentenga,67063806B10845212636131,BFA,ADM2,-0.5082749475372426,13.179419774303861,True,Africa/Ouagadougou,0.0,180,419212.4792320865,518209.4054211423
458,Sanmatenga,67063806B54692073140068,BFA,ADM2,-1.0303427808339898,13.24234423386796,True,Africa/Ouagadougou,318.0,180,421048.8344766814,517316.65388015343
459,Kenedougou,67063806B9375485614542,BFA,ADM2,-4.97623736529247,11.423205437772795,True,Africa/Ouagadougou,0.0,180,409500.427659129,504944.4837271273
460,Leraba,67063806B8254339248909,BFA,ADM2,-5.261829385836079,10.612730821694797,True,Africa/Ouagadougou,0.0,180,401018.8736368416,488480.3007505158
461,Comoe,67063806B6461887322435,BFA,ADM2,-4.4289928768145,10.298832224250294,True,Africa/Ouagadougou,0.0,180,398826.56064730446,489484.5288691972
462,Noumbiel,67063806B78350075830190,BFA,ADM2,-2.955516201625447,9.875880111643596,True,Africa/Ouagadougou,309.0,180,390561.05877157184,477364.06755905296
463,Poni,67063806B8041269423759,BFA,ADM2,-3.3571202864006158,10.305878709530395,True,Africa/Ouagadougou,0.0,180,398615.80317887635,488321.159958039
464,Ioba,67063806B47797635439115,BFA,ADM2,-3.0229660952129267,11.083586933925801,True,Africa/Ouagadougou,308.0,180,405802.26158772694,498256.0483205536
465,Sissili,67063806B75900195473972,BFA,ADM2,-2.2233147769761894,11.295602555546996,True,Africa/Ouagadougou,0.0,180,401191.69281005254,492498.4296027703
466,Nahouri,67063806B90465948144495,BFA,ADM2,-1.2087866409997738,11.205830817965639,True,Africa/Ouagadougou,357.0,180,406426.94006326364,500557.7079019012
467,Boulgou,67063806B79770817740465,BFA,ADM2,-0.4498051934329897,11.512351304073515,True,Africa/Ouagadougou,0.0,180,408311.49674735183,503611.47751229047
468,Koulpelogo,67063806B92956545078683,BFA,ADM2,0.20139279679818745,11.414715349390017,True,Africa/Ouagadougou,0.0,180,401932.95434888394,492703.61066161393
469,Kompienga,67063806B63358793036390,BFA,ADM2,0.8872356647318408,11.431293434614808,True,Africa/Ouagadougou,171.0,180,395616.34276917885,486049.2255226098
470,Tapoa,67063806B60723724569169,BFA,ADM2,1.7398815210022185,12.068564585593576,True,Africa/Ouagadougou,0.0,180,413360.3819875897,509234.5243005303
471,Yagha,67063806B32901667163906,BFA,ADM2,0.6078411268672789,13.404738948790143,True,Africa/Ouagadougou,0.0,180,419193.57208619243,516007.1662530449
472,Seno,67063806B86156352342594,BFA,ADM2,-0.03479695486244787,13.94493362849515,True,Africa/Ouagadougou,284.0,180,422369.320539483,520368.4360902597
473,Oudalan,67063806B71789570765121,BFA,ADM2,-0.33345917189742236,14.651661676499602,True,Africa/Ouagadougou,0.0,180,422899.61988639866,518602.9994813808
474,Soum,67063806B70466570504467,BFA,ADM2,-1.300977938434749,14.246038616646155,True,Africa/Ouagadougou,292.0,180,429444.8046715995,531150.8276913348
475,Yatenga,67063806B65280418727437,BFA,ADM2,-2.3865908269402607,13.60397404946481,True,Africa/Ouagadougou,0.0,180,419024.31429959915,516271.4253461589
476,Sourou,67063806B20155029653315,BFA,ADM2,-3.0149531776462726,13.247000439613608,True,Africa/Ouagadougou,0.0,180,415150.23879343143,510205.0963699036
477,Kossi,67063806B77397496256894,BFA,ADM2,-3.879365665638907,12.924368307940924,True,Africa/Ouagadougou,271.0,180,411703.8172217159,507069.2354477804
478,Banwa,67063806B90065327421296,BFA,ADM2,-4.167790939767321,12.252254341885482,True,Africa/Ouagadougou,0.0,180,413757.7937551027,509961.23320823157
479,Ryansoro,21766830B51581455705264,BDI,ADM2,29.7986663264866,-3.7070446018979255,True,Africa/Bujumbura,1954.0,0,336145.5789564099,405009.2295879075
480,Ndava,21766830B24037016071048,BDI,ADM2,29.7537140281817,-3.391297980589988,True,Africa/Bujumbura,0.0,0,339099.6974341459,407947.45667101536
481,Buyengero,21766830B72694279365930,BDI,ADM2,29.53288376011091,-3.848912326980658,True,Africa/Bujumbura,0.0,0,331887.5481766452,401436.2484105799
482,Bugarama,21766830B31049489476840,BDI,ADM2,29.400332830536986,-3.690924820858385,True,Africa/Bujumbura,1577.0,0,297173.37834031985,343903.82600800757
483,Rumonge,21766830B32777890626704,BDI,ADM2,29.457043573364498,-3.9623527299352594,True,Africa/Bujumbura,0.0,0,341120.23402895185,414211.0213052336
484,Burambi,21766830B13270332643198,BDI,ADM2,29.452575153198243,-3.7987943051865933,True,Africa/Bujumbura,1901.0,0,320681.86078903876,375593.33708426525
485,Kanyosha1,21766830B91002704780807,BDI,ADM2,29.415123733855495,-3.430976965059026,True,Africa/Bujumbura,0.0,0,324202.4429958368,379784.9392620312
486,Kabezi,21766830B36835382033084,BDI,ADM2,29.369880352727275,-3.531043697854864,True,Africa/Bujumbura,0.0,0,341185.89503245224,403001.87804113823
487,Muhuta,21766830B14140898215143,BDI,ADM2,29.415297570472127,-3.6236378775347724,True,Africa/Bujumbura,1898.0,0,272142.6065167857,315277.8217566355
488,Mukike,21766830B24780978451442,BDI,ADM2,29.51358616549754,-3.564768515312979,True,Africa/Bujumbura,0.0,0,304413.9426285137,361181.02618646814
489,Mutambu,21766830B26172674635426,BDI,ADM2,29.432249506309923,-3.528438806820108,True,Africa/Bujumbura,0.0,0,320493.35257009853,384280.91189299326
490,Nyabiraba,21766830B65855218165696,BDI,ADM2,29.47551203006906,-3.457874799694613,True,Africa/Bujumbura,1726.0,0,317883.3153499281,379212.28682831785
491,Bururi,21766830B40262547233983,BDI,ADM2,29.673774216004972,-3.96321379176033,True,Africa/Bujumbura,0.0,0,340914.96069174027,412313.9484200313
492,Vugizo,21766830B72373703869549,BDI,ADM2,29.678517373684013,-4.153679446343666,True,Africa/Bujumbura,1823.0,0,328283.2158514216,395000.09436982387
493,Vyanda,21766830B58261819569057,BDI,ADM2,29.596257368825345,-4.069743761970435,True,Africa/Bujumbura,0.0,0,330808.9102182632,387950.2928992648
494,Rusaka,21766830B4360406366219,BDI,ADM2,29.635341698292514,-3.453759716132238,True,Africa/Bujumbura,0.0,0,336023.2555109926,402444.05390414625
495,Mugamba,21766830B94080264403798,BDI,ADM2,29.586507639286303,-3.670178216581528,True,Africa/Bujumbura,2094.0,0,314539.5800871773,375010.6913899003
496,Songa,21766830B2637956321101,BDI,ADM2,29.66783996341754,-3.8533891122180455,True,Africa/Bujumbura,0.0,0,333467.7068554665,404394.8384961694
497,Mugongoman,21766830B4857646374703,BDI,ADM2,29.548715351885317,-3.441636568094523,True,Africa/Bujumbura,0.0,0,328088.05020477937,391153.1128435756
498,Gisozi,21766830B19333977175167,BDI,ADM2,29.633532824976037,-3.5567910483466165,True,Africa/Bujumbura,2194.0,0,324330.1727229737,388476.00056016474
499,Bisoro,21766830B89840065497772,BDI,ADM2,29.71109464383063,-3.6271569213503865,True,Africa/Bujumbura,0.0,0,325857.60349805723,390146.9921393788
500,Matana,21766830B18921295675400,BDI,ADM2,29.714129045382403,-3.74485084504213,True,Africa/Bujumbura,0.0,0,326886.35487118154,392811.1426114121
501,Kayokwe,21766830B55907977289604,BDI,ADM2,29.744204822691984,-3.5225462211956478,True,Africa/Bujumbura,1737.0,0,331677.3482850508,398642.3306392675
502,Mpanda,21766830B27994781295310,BDI,ADM2,29.408252944061378,-3.1857018271110458,True,Africa/Bujumbura,0.0,0,340537.60902005795,403963.9633571395
503,Murwi,21766830B66237815735217,BDI,ADM2,29.248332003584334,-2.905055065907014,True,Africa/Bujumbura,0.0,0,357448.02513497235,426276.35416416003
504,Bubanza,21766830B70249907645493,BDI,ADM2,29.365503088315787,-3.0591764847585163,True,Africa/Bujumbura,990.0,0,360617.96045858006,429625.7370201416
505,Rango,21766830B52252554978419,BDI,ADM2,29.761904592368893,-3.1558691405830803,True,Africa/Bujumbura,0.0,0,350381.09798830317,412274.4365977026
506,Bukeye,21766830B89600323039153,BDI,ADM2,29.604406853480047,-3.193155611086528,True,Africa/Bujumbura,2074.0,0,342432.80324033485,408877.5092379644
507,Muramvya,21766830B75311935252649,BDI,ADM2,29.587000891777567,-3.301016488630215,True,Africa/Bujumbura,0.0,0,328000.6873423131,389835.34594265925
508,Isale,21766830B17268150669588,BDI,ADM2,29.470826451483852,-3.3636146679416603,True,Africa/Bujumbura,2004.0,0,325269.10825774766,384371.24702657724
509,Rugazi,21766830B29868880431968,BDI,ADM2,29.484711182577087,-3.2063834619337848,True,Africa/Bujumbura,0.0,0,348211.34080948326,407477.63672851195
510,Mubimbi,21766830B38784521668340,BDI,ADM2,29.483558587499296,-3.2953403483821773,True,Africa/Bujumbura,0.0,0,344393.59136716544,406406.0689560406
511,Rutegama,21766830B72733606015225,BDI,ADM2,29.744146778409007,-3.3153745333641504,True,Africa/Bujumbura,0.0,0,343954.98454798403,414139.59589716455
512,Kiganda,21766830B86275018260755,BDI,ADM2,29.672301144588225,-3.345367886575429,True,Africa/Bujumbura,1897.0,0,332172.2743540965,398843.1438257972
513,Mbuye,21766830B36103898428570,BDI,ADM2,29.746992807431695,-3.240138492759717,True,Africa/Bujumbura,0.0,0,352266.073006266,415789.37231291155
514,Gahombo,21766830B38836808291040,BDI,ADM2,29.73257880986387,-2.9929791033281146,True,Africa/Bujumbura,1720.0,0,359578.09702593065,431953.4741336632
515,Gatara,21766830B25707783862584,BDI,ADM2,29.6774160665716,-2.9921575791691035,True,Africa/Bujumbura,0.0,0,363066.4751944363,437978.6028969284
516,Butaganzwa,21766830B87758575998638,BDI,ADM2,29.694270803073536,-3.1024786979905485,True,Africa/Bujumbura,0.0,0,346120.5769381892,414280.6902413108
517,Kayanza,21766830B84106347559317,BDI,ADM2,29.639923650566406,-2.9185177334391326,True,Africa/Bujumbura,1915.0,0,340037.65690694586,406622.4373312458
518,Bugendana,21766830B71062038912102,BDI,ADM2,29.93420679724706,-3.256121840228279,True,Africa/Bujumbura,0.0,0,358356.46873734856,429179.35942294647
519,Musongati,21766830B89324425383518,BDI,ADM2,30.069568407298124,-3.755070856552444,True,Africa/Bujumbura,1750.0,0,358131.86391790037,437337.59510774666
520,Rutana,21766830B95746888860763,BDI,ADM2,29.98335104006182,-3.8866804686761087,True,Africa/Bujumbura,0.0,0,352500.0309138978,422875.86516840156
521,Gitanga,21766830B87895722039818,BDI,ADM2,29.902080000606468,-4.008039162230292,True,Africa/Bujumbura,0.0,0,348510.16438817594,414857.8900794102
522,Makamba,21766830B66939921424101,BDI,ADM2,29.815285987374047,-4.125482625132441,True,Africa/Bujumbura,1479.0,0,348454.39055745036,419134.1316718278
523,Rutovu,21766830B25905143515438,BDI,ADM2,29.831744106016647,-3.8785980039288317,True,Africa/Bujumbura,0.0,0,344284.9235940158,415598.039913856
524,Buraza,21766830B3303123993236,BDI,ADM2,29.90564462199213,-3.7562414806632853,True,Africa/Bujumbura,0.0,0,349741.45652764704,423691.6813795085
525,Nyanrusang,21766830B73562224956549,BDI,ADM2,29.830047091664355,-3.5680653890874408,True,Africa/Bujumbura,1803.0,0,339483.07029006706,411971.5411634076
526,Gishubi,21766830B32665034860455,BDI,ADM2,29.890247996982982,-3.6155533302663367,True,Africa/Bujumbura,0.0,0,330743.9140509176,376346.6252252946
527,Nyabihanga,21766830B17486429962760,BDI,ADM2,29.81242155833532,-3.4491167147801565,True,Africa/Bujumbura,0.0,0,346919.9821749537,419694.3451524705
528,Giheta,21766830B76485672774701,BDI,ADM2,29.88210409605599,-3.3362032419348733,True,Africa/Bujumbura,1584.0,0,339771.4316694561,408116.89198246726
529,Itaba,21766830B81399712036677,BDI,ADM2,30.047272620338855,-3.604464050786843,True,Africa/Bujumbura,0.0,0,349100.5494010306,421018.5117700427
530,Bukirasazi,21766830B80629459024639,BDI,ADM2,29.966632306796225,-3.7018499207533004,True,Africa/Bujumbura,0.0,0,351858.6387355472,426917.7272209856
531,Gitega,21766830B69591063381574,BDI,ADM2,29.95802264535512,-3.441110391776762,True,Africa/Bujumbura,1737.0,0,343515.85471652343,404782.72013247194
532,Makebuko,21766830B15811078155518,BDI,ADM2,29.966719965029167,-3.5722918683786515,True,Africa/Bujumbura,0.0,0,357073.4368959223,433941.7663206674
533,Butaganzwa,21766830B11414555561270,BDI,ADM2,30.148202153842814,-3.533333466923694,True,Africa/Bujumbura,0.0,0,354540.2428173357,430145.346406499
534,Mpinga-Kay,21766830B77564167498805,BDI,ADM2,30.139953251344462,-3.8046359038445727,True,Africa/Bujumbura,2028.0,0,375318.31438369653,458453.2940403702
535,Nyabitsind,21766830B24825002042526,BDI,ADM2,30.27034354514354,-3.577935479042175,True,Africa/Bujumbura,0.0,0,353690.22949110996,429444.30054312566
536,Ruyigi,21766830B17506602240665,BDI,ADM2,30.27886924558178,-3.4367755869609713,True,Africa/Bujumbura,1606.0,0,365772.6079947194,444194.87270259607
537,Shombo,21766830B50673772074896,BDI,ADM2,30.054090366599393,-3.2845738443695605,True,Africa/Bujumbura,0.0,0,356383.69535294315,420392.2549859529
538,Butezi,21766830B26044748371423,BDI,ADM2,30.197306050213616,-3.3538786334664294,True,Africa/Bujumbura,0.0,0,351270.68816110055,425762.8841246122
539,Nyabikere,21766830B35176009375128,BDI,ADM2,30.140844156655852,-3.264968842740856,True,Africa/Bujumbura,1531.0,0,341862.3086894258,415219.3387084777
540,Bweru,21766830B39870041079987,BDI,ADM2,30.38203611470356,-3.296391340294213,True,Africa/Bujumbura,0.0,0,360763.25837882207,440041.0663344895
541,Gitaramuka,21766830B2211499884350,BDI,ADM2,30.16314461205338,-2.9750636714903154,True,Africa/Bujumbura,0.0,0,358963.30080201325,437570.5908473486
542,Gashikanwa,21766830B95738875058381,BDI,ADM2,29.90964670724016,-2.8962408620808495,True,Africa/Bujumbura,1792.0,0,342443.5346409586,410138.70136856026
543,Mutaho,21766830B29011409096617,BDI,ADM2,29.866490345081242,-3.14510494262495,True,Africa/Bujumbura,0.0,0,347575.35607574275,415188.7839829531
544,Muhanga,21766830B24961695434412,BDI,ADM2,29.802948178197564,-3.044627275296918,True,Africa/Bujumbura,0.0,0,353161.41059509147,420752.1408211338
545,Ngozi,21766830B35301506436742,BDI,ADM2,29.827128159639603,-2.9503581474244744,True,Africa/Bujumbura,1606.0,0,352567.07668103214,423089.69602834963
546,Bugenyuzi,21766830B66626516446695,BDI,ADM2,30.060877864008617,-3.078774765512306,True,Africa/Bujumbura,0.0,0,349798.7666304179,421595.10903660976
547,Gihogazi,21766830B47881609362439,BDI,ADM2,29.9802416957503,-3.1406919928743435,True,Africa/Bujumbura,0.0,0,338635.1357841917,403701.86951963935
548,Ruhororo,21766830B83078145904206,BDI,ADM2,29.941038080997913,-3.0085035572733148,True,Africa/Bujumbura,1567.0,0,342087.63419223763,407183.7775050044
549,Tangara,21766830B4667325104587,BDI,ADM2,30.075593950856273,-2.92062167307792,True,Africa/Bujumbura,0.0,0,356486.08678905765,435655.81538154715
550,Vumbi,21766830B60116589238707,BDI,ADM2,30.093697236054012,-2.7007792553167307,True,Africa/Bujumbura,1540.0,0,346143.41397040116,420550.1785374307
551,Kiremba,21766830B44237759334809,BDI,ADM2,30.0322376408742,-2.836006382818474,True,Africa/Bujumbura,1564.0,0,345431.4991092055,408939.96781171235
552,Kirundo,21766830B26549611972725,BDI,ADM2,30.108460296773387,-2.5575275101277715,True,Africa/Bujumbura,0.0,0,355361.69033885945,431441.8525254879
553,Cankuzo,21766830B23756713917278,BDI,ADM2,30.496421274755065,-3.2004310156162874,True,Africa/Bujumbura,1618.0,0,364164.8789129801,446121.7961336942
554,Mutumba,21766830B82901968055666,BDI,ADM2,30.242434565544954,-3.2019792927461883,True,Africa/Bujumbura,0.0,0,346108.29302091734,420523.30678850104
555,Buhiga,21766830B23511682723630,BDI,ADM2,30.187901607592295,-3.085379523804786,True,Africa/Bujumbura,0.0,0,341718.0320864062,411859.5389139142
556,Mwakiro,21766830B10181595189520,BDI,ADM2,30.311378968574584,-3.0959621081342696,True,Africa/Bujumbura,1558.0,0,350015.8176972965,424352.9376190017
557,Gasorwe,21766830B82611116745094,BDI,ADM2,30.235606014976202,-2.850918096181489,True,Africa/Bujumbura,0.0,0,359366.02992959844,436274.56576126814
558,Gashoho,21766830B49899566949034,BDI,ADM2,30.173235993121743,-2.7660583839361172,True,Africa/Bujumbura,0.0,0,335378.5375772642,403989.69034674385
559,Gitobe,21766830B58356129382648,BDI,ADM2,30.22913276155679,-2.6422790150571602,True,Africa/Bujumbura,1613.0,0,349565.4042544842,416541.63230708794
560,Bwambarang,21766830B10882929904233,BDI,ADM2,30.35554480204977,-2.5523088430382774,True,Africa/Bujumbura,0.0,0,365045.05190476286,444563.1484686657
561,Ntega,21766830B46224156448041,BDI,ADM2,29.991502247945274,-2.5905613666878367,True,Africa/Bujumbura,1523.0,0,359480.18660843524,435401.9819953787
562,Marangara,21766830B34593389282909,BDI,ADM2,29.962784638182868,-2.734477403254198,True,Africa/Bujumbura,0.0,0,352201.3189304471,416307.2434743014
563,Nyamurenza,21766830B14713025325915,BDI,ADM2,29.88127850190257,-2.813402800955391,True,Africa/Bujumbura,0.0,0,344327.3688558337,413723.1963487875
564,Mwumba,21766830B13058774962077,BDI,ADM2,29.800840520213765,-2.825256533863558,True,Africa/Bujumbura,1715.0,0,348400.60258418863,419919.6818112293
565,Busiga,21766830B1882461017579,BDI,ADM2,29.710428602389246,-2.8584761000503898,True,Africa/Bujumbura,0.0,0,344615.83270379365,411682.59778742364
566,Kabarore,21766830B63780958565723,BDI,ADM2,29.546030255885768,-2.847277998449509,True,Africa/Bujumbura,0.0,0,329141.3135586956,388650.3520910819
567,Bukinanyan,21766830B75549003528399,BDI,ADM2,29.36512810861586,-2.8701396228905156,True,Africa/Bujumbura,1522.0,0,329297.5481458237,389126.3654080502
568,Mabayi,21766830B12025098844752,BDI,ADM2,29.255358515864096,-2.7138080526430235,True,Africa/Bujumbura,0.0,0,299602.36330935947,348047.7484164009
569,Mugina,21766830B421358417112,BDI,ADM2,29.122086710124357,-2.692532040397776,True,Africa/Bujumbura,0.0,0,299331.78025971365,332884.36796618084
570,Rugombo,21766830B51540876931984,BDI,ADM2,29.095024027053874,-2.8215513455125407,True,Africa/Bujumbura,928.0,0,355564.8689748938,424001.99776694935
571,Buganda,21766830B2147150443328,BDI,ADM2,29.22621307243784,-2.9905676447154925,True,Africa/Bujumbura,0.0,0,358614.2532890395,430561.8720185444
572,Gihanga,21766830B78591112120307,BDI,ADM2,29.29387659091656,-3.197166597391982,True,Africa/Bujumbura,819.0,0,373515.10713486356,448958.14888325427
573,Mutimbuzi,21766830B6345718789328,BDI,ADM2,29.322740326557145,-3.3035426825077385,True,Africa/Bujumbura,0.0,0,371692.61226848356,449031.3112576092
574,Nyanza-Lac,21766830B74257208244788,BDI,ADM2,29.646028240105746,-4.301060325965465,True,Africa/Bujumbura,0.0,0,362796.3509411067,440810.93152962707
575,Mabanda,21766830B71257741300393,BDI,ADM2,29.767987588939217,-4.307414003320379,True,Africa/Bujumbura,1414.0,0,336513.1367803823,393799.272449221
576,Giharo,21766830B38172137244003,BDI,ADM2,30.233999453381355,-3.8362325651067297,True,Africa/Bujumbura,0.0,0,357413.63238077104,431909.272788656
577,Kinyinya,21766830B54937037916307,BDI,ADM2,30.36403332284403,-3.6240474140935928,True,Africa/Bujumbura,0.0,0,355913.6538519731,430345.5298675593
578,Gisuru,21766830B39450952647031,BDI,ADM2,30.498096977340136,-3.4456489653865723,True,Africa/Bujumbura,1291.0,0,349631.4522595087,424245.16409873334
579,Cendajuru,21766830B5675183686685,BDI,ADM2,30.606724355642132,-3.310616084204604,True,Africa/Bujumbura,0.0,0,361797.5077728317,441674.8351354755
580,Gisagara,21766830B1729082638594,BDI,ADM2,30.737571846455193,-3.212702681798638,True,Africa/Bujumbura,0.0,0,348957.6914038225,421953.34038498916
581,Mishiha,21766830B80223800900582,BDI,ADM2,30.727698960968258,-3.0669175945768417,True,Africa/Bujumbura,1375.0,0,356086.07275646646,435576.2282889616
582,Kigamba,21766830B44986812705529,BDI,ADM2,30.532280523908668,-3.0413678121270684,True,Africa/Bujumbura,0.0,0,342318.24103664036,415351.2073861969
583,Buhinyuza,21766830B3809417619483,BDI,ADM2,30.378364461980397,-2.979595747569161,True,Africa/Bujumbura,0.0,0,363971.7465443395,445176.1630670552
584,Muyinga,21766830B41528201457160,BDI,ADM2,30.382307834578295,-2.809494098530676,True,Africa/Bujumbura,1664.0,0,361787.9026776008,441484.3316711535
585,Butihinda,21766830B20307269846045,BDI,ADM2,30.322180170629775,-2.710932822010716,True,Africa/Bujumbura,0.0,0,359264.2380515501,434300.63761394995
586,Giteranyi,21766830B83765633898760,BDI,ADM2,30.446878124203796,-2.457029514417403,True,Africa/Bujumbura,1499.0,0,348894.757627279,429385.43872443406
587,Busoni,21766830B78190696569930,BDI,ADM2,30.252526842899506,-2.4717697952021407,True,Africa/Bujumbura,0.0,0,360228.8062755334,439148.04980161926
588,Bugabira,21766830B53810177315638,BDI,ADM2,30.01976251138056,-2.4299417365612,True,Africa/Bujumbura,1427.0,0,357030.1394383671,431103.06876190944
589,Kayogoro,21766830B93103585159294,BDI,ADM2,30.023979166247265,-4.1498291928549635,True,Africa/Bujumbura,0.0,0,372402.92504178593,453885.1322269799
590,Bukemba,21766830B33206260721673,BDI,ADM2,30.073168518879946,-4.023689987979201,True,Africa/Bujumbura,0.0,0,370480.1317391889,450253.02800783643
591,Matongo,21766830B70902227945627,BDI,ADM2,29.604153313419943,-3.077554061742002,True,Africa/Bujumbura,1941.0,0,345532.4968038883,412239.45133772364
592,Muruta,21766830B99657937177591,BDI,ADM2,29.558833596758074,-2.956298849943443,True,Africa/Bujumbura,0.0,0,339949.02840365074,391234.4292824437
593,Musigati,21766830B9951429704486,BDI,ADM2,29.476405819663704,-3.037412286789113,True,Africa/Bujumbura,0.0,0,313651.7034276468,359398.176291644
594,Muha,21766830B84199363749171,BDI,ADM2,29.3597792108142,-3.4372661017863693,True,Africa/Bujumbura,825.0,0,342145.2939331167,408468.6350145612
595,Mukaza,21766830B10562197966638,BDI,ADM2,29.37210137610664,-3.3834507120297577,True,Africa/Bujumbura,0.0,0,353584.79032998753,421984.37229129806
596,Ntahangwa,21766830B87038696970617,BDI,ADM2,29.365338667785473,-3.339531767928135,True,Africa/Bujumbura,794.0,0,364046.78146943054,435994.8654261124
597,Kibago,21766830B23200126988104,BDI,ADM2,29.891067255041733,-4.289696830358667,True,Africa/Bujumbura,0.0,0,352511.44032301876,422283.70016645244
598,Nossa Senhora Da Conceicao,66160863B39753348448887,CPV,ADM2,-24.428188694373745,14.887434988596219,True,Atlantic/Cape_Verde,677.0,180,0.0,0.0
599,Nossa Senhora Da Lapa,66160863B12848359802416,CPV,ADM2,-24.329049916894316,16.656375301605888,True,Atlantic/Cape_Verde,0.0,180,372791.16601007973,415263.7680763765
600,Nossa Senhora Da Luz,66160863B67599039999674,CPV,ADM2,-23.161083929061785,15.216487209551419,True,Atlantic/Cape_Verde,83.0,180,419331.3957697448,510542.7148948851
601,Nossa Senhora Das Dores,66160863B51777192933696,CPV,ADM2,-22.931680804537017,16.73740175907333,True,Atlantic/Cape_Verde,0.0,180,450362.2579989009,546720.2585482331
602,Nossa Senhora Da Ajuda,66160863B13080281314211,CPV,ADM2,-24.338935777948272,15.00033564157118,True,Atlantic/Cape_Verde,0.0,180,387568.733089439,451622.3409332993
603,Nossa Senhora Do Livramento,66160863B28688334871687,CPV,ADM2,-25.110205247292416,17.182111976582764,True,Atlantic/Cape_Verde,413.0,180,217872.14485397088,234378.71721410748
604,Sao Joao Baptista,66160863B96352926706883,CPV,ADM2,-24.69208504790064,14.855362023096143,True,Atlantic/Cape_Verde,0.0,180,0.0,0.0
605,Nossa Senhora Do Rosario,66160863B38183693605809,CPV,ADM2,-24.193412096670155,16.595600922554265,True,Atlantic/Cape_Verde,0.0,180,426895.19830403186,523360.15254421346
606,Nossa Senhora Do Rosario,66160863B91585848329276,CPV,ADM2,-25.060992650229316,17.156512610299792,True,Atlantic/Cape_Verde,400.0,180,129519.94644961656,139994.8744047059
607,Santa Catarina Do Fogo,66160863B71170562423195,CPV,ADM2,-24.33874417207457,14.896426618646522,True,Atlantic/Cape_Verde,0.0,180,0.0,0.0
608,Santa Isabel,66160863B6342114798882,CPV,ADM2,-22.858377394260547,16.086437889207687,True,Atlantic/Cape_Verde,29.0,180,421868.7344807503,516325.20547440974
609,Santo Andre,66160863B70751634637165,CPV,ADM2,-25.2751634024586,17.076695511206083,True,Atlantic/Cape_Verde,0.0,180,39072.055340900755,51339.36188275265
610,Santo Antonio Das Pombas,66160863B53098387752451,CPV,ADM2,-25.012571419173163,17.111493773462417,True,Atlantic/Cape_Verde,720.0,180,142354.8765851792,154904.60869167323
611,Santo Crucifixo,66160863B26577257957631,CPV,ADM2,-25.114916640054847,17.130491993453425,True,Atlantic/Cape_Verde,0.0,180,179121.59608612646,217014.53651760833
612,Nossa Senhora Do Monte,66160863B40523802781782,CPV,ADM2,-24.7234490275945,14.849307483160054,True,Atlantic/Cape_Verde,0.0,180,0.0,0.0
613,Sao Joao Baptista,66160863B76154481217824,CPV,ADM2,-22.741144025263026,16.115891072515183,True,Atlantic/Cape_Verde,42.0,180,422466.18284858816,508923.40718525415
614,Sao Joao Baptista,66160863B46579427106888,CPV,ADM2,-25.177517923560778,17.012106054685443,True,Atlantic/Cape_Verde,0.0,180,-0.5249999999999999,-0.3
615,Sao Lourenco,66160863B41356087556588,CPV,ADM2,-24.436036179323995,14.974269442209703,True,Atlantic/Cape_Verde,0.0,180,0.0,0.0
616,Santa Catarina,66160863B9089914822408,CPV,ADM2,-23.70735221397114,15.10545492651663,True,Atlantic/Cape_Verde,397.0,180,404278.96966576925,489326.7584433451
617,Santiago Maior,66160863B62302711188639,CPV,ADM2,-23.55229916986206,15.11118363452127,True,Atlantic/Cape_Verde,0.0,180,387516.29788333876,445880.473911211
618,Santo Amaro Abade,66160863B37752467633472,CPV,ADM2,-23.717321888511606,15.262187637738982,True,Atlantic/Cape_Verde,174.0,180,370247.4019832405,422366.6731433269
619,Sao Lourenco Dos Orgaos,66160863B72941798312267,CPV,ADM2,-23.593478019551394,15.06491187701844,True,Atlantic/Cape_Verde,0.0,180,382833.005291842,450221.2434133973
620,Sao Miguel Arcanjo,66160863B69203973191500,CPV,ADM2,-23.63912311337713,15.193098434456765,True,Atlantic/Cape_Verde,0.0,180,372496.8366816009,420244.02339026716
621,Nossa Senhora Da Graca,66160863B19025383966327,CPV,ADM2,-23.52123693221922,14.950802680004768,True,Atlantic/Cape_Verde,133.0,180,0.0,0.0
622,Santissimo Nome De Jesus,66160863B56005242542710,CPV,ADM2,-23.598830779311825,14.942838340881684,True,Atlantic/Cape_Verde,0.0,180,0.0,0.0
623,Sao Joao Baptista,66160863B53173453259277,CPV,ADM2,-23.656282950950537,14.990536955613456,True,Atlantic/Cape_Verde,367.0,180,0.0,0.0
624,Sao Salvador Do Mundo,66160863B42982614395502,CPV,ADM2,-23.62956810427272,15.09072806324322,True,Atlantic/Cape_Verde,0.0,180,364559.47919331974,411981.05789754505
625,Sao Pedro Apostolo,66160863B19660935593220,CPV,ADM2,-25.176838557323293,17.1291311331977,True,Atlantic/Cape_Verde,0.0,180,-0.5249999999999999,-0.3
626,Sao Nicolau Tolentino,66160863B10929768356041,CPV,ADM2,-23.56772826806891,15.015440343374589,True,Atlantic/Cape_Verde,520.0,180,419345.96552069474,511316.4904585043
627,Nossa Senhora Da Luz,66160863B49789826079472,CPV,ADM2,-23.47890817805329,15.022814819295656,True,Atlantic/Cape_Verde,0.0,180,426669.5335966635,521605.6814916542
628,Nossa Senhora Da Luz,66160863B58817505266013,CPV,ADM2,-24.932213225584047,16.831071757357726,True,Atlantic/Cape_Verde,104.0,180,310551.3122972067,378806.46762993187
629,Sao Francisco De Assis,66160863B96931694342339,CPV,ADM2,-24.358565829057067,16.59531083573422,True,Atlantic/Cape_Verde,0.0,180,432806.69942592597,539131.1170154428
630,Djerem,32672807B72380332498823,CMR,ADM2,12.722351286062477,6.459412522818466,True,Africa/Douala,0.0,180,394637.13315329305,479687.5386998783
631,Faro-et-Deo,32672807B79440248069412,CMR,ADM2,12.45593875894507,7.448155531698555,True,Africa/Douala,640.0,180,385192.0836858181,465407.5605613705
632,Mayo-Banyo,32672807B95498803014525,CMR,ADM2,11.726117625052654,6.563252311003181,True,Africa/Douala,0.0,180,383665.4808445196,462089.27529377793
633,Mbere,32672807B16068661668461,CMR,ADM2,14.21271374777964,6.472651178743683,True,Africa/Douala,0.0,180,380043.5617380109,460306.9110450871
634,Vina,32672807B59264134581656,CMR,ADM2,13.666874888482699,7.1694899399299965,True,Africa/Douala,1204.0,180,369173.2242082897,446144.8884324186
635,Haute-Sanaga,32672807B25561230915667,CMR,ADM2,12.512782625314717,4.67699980172397,True,Africa/Douala,0.0,180,352523.1533772374,417100.16877028585
636,Lekie,32672807B3101876589222,CMR,ADM2,11.412818869363157,4.149576571869158,True,Africa/Douala,0.0,180,349724.72780424246,413741.1203755477
637,Mbam-et-Inoubou,32672807B45233775776188,CMR,ADM2,10.967344695743758,4.729224238788222,True,Africa/Douala,0.0,180,347683.0697262108,412544.0277610052
638,Mbam-et-Kim,32672807B95944109326060,CMR,ADM2,11.988483299087378,5.428827085022554,True,Africa/Douala,654.0,180,359443.9233463899,426660.7675326267
639,Mefou-et-Afamba,32672807B57773393916452,CMR,ADM2,11.798936270946381,3.9535801021939436,True,Africa/Douala,0.0,180,338993.0490972296,402443.2270031463
640,Mefou-et-Akono,32672807B65731125326388,CMR,ADM2,11.365262088758094,3.6058834084977818,True,Africa/Douala,695.0,180,335706.24121082836,398553.3182643062
641,Mfoundi,32672807B36529963659187,CMR,ADM2,11.501750806281052,3.8083917087643315,True,Africa/Douala,0.0,180,344184.5347631759,406108.3636120878
642,Nyong-et-Kelle,32672807B27096701160694,CMR,ADM2,10.817092218529504,3.7128068497912845,True,Africa/Douala,0.0,180,319090.85336402705,370371.66255921195
643,Nyong-et-Mfoumou,32672807B17257894448554,CMR,ADM2,12.334924936568044,3.8605059909001476,True,Africa/Douala,649.0,180,336348.52845360345,397388.7002139735
644,Nyong-et-So,32672807B23369878558765,CMR,ADM2,11.547060897551095,3.40172916371655,True,Africa/Douala,0.0,180,342904.5790544313,405090.27714255906
645,Boumba-Et-Ngoko,32672807B40314964499081,CMR,ADM2,15.263693790669997,2.8150572406455168,True,Africa/Douala,0.0,180,349957.98717993166,418371.0825107192
646,Haut-Nyong,32672807B24706785822934,CMR,ADM2,13.584887123430008,3.33775808240092,True,Africa/Douala,676.0,180,325099.6296742531,386160.2674490518
647,Kadei,32672807B29047919086815,CMR,ADM2,14.382546249679336,4.26791288157102,True,Africa/Douala,0.0,180,355873.00804559165,425702.2671693384
648,Lom-Et-Djerem,32672807B76674513300734,CMR,ADM2,13.761577392966084,5.325652435658298,True,Africa/Douala,0.0,180,362767.0167823531,434344.44709426176
649,Diamare,32672807B30054475581978,CMR,ADM2,14.357254232938164,10.666934767628815,True,Africa/Douala,403.0,180,411633.9387087162,505650.61437069013
650,Logone-Et-Chari,32672807B53801841297301,CMR,ADM2,14.672563916337086,11.980739458437316,True,Africa/Douala,0.0,180,416368.01830222737,511853.6734080061
651,Mayo-Danay,32672807B23743986432811,CMR,ADM2,15.075333407094243,10.399031524163586,True,Africa/Douala,323.0,180,410090.6305421125,507057.3793798594
652,Mayo-Kani,32672807B89855431664933,CMR,ADM2,14.5140860636159,10.240020437588804,True,Africa/Douala,0.0,180,409195.4787451679,501284.33470550505
653,Mayo-Sava,32672807B4790524999002,CMR,ADM2,14.151756040876876,11.056376943485184,True,Africa/Douala,0.0,180,411053.0287855683,502643.19385715324
654,Mayo-Tsanaga,32672807B48868778994443,CMR,ADM2,13.753001028498721,10.526630052617472,True,Africa/Douala,642.0,180,409704.7981817722,496226.16102026496
655,Moungo,32672807B47378783864223,CMR,ADM2,9.767398352796427,4.674794335490666,True,Africa/Douala,0.0,180,329481.5354076815,383555.51672688354
656,Nkam,32672807B89475673783386,CMR,ADM2,10.159757025846591,4.52925479762292,True,Africa/Douala,0.0,180,336321.04714737966,391109.2453361849
657,Sanaga-Maritime,32672807B95558278906476,CMR,ADM2,10.314890672084333,3.949622815556111,True,Africa/Douala,216.0,180,328099.0723196011,383190.17158810544
658,Wouri,32672807B59545531100821,CMR,ADM2,9.690826811895946,4.008874754379228,True,Africa/Douala,0.0,180,0.0,0.0
659,Benoue,32672807B41938793250317,CMR,ADM2,13.487230770650445,9.231351864608664,True,Africa/Douala,317.0,180,406920.1573879406,501679.902700481
660,Faro,32672807B99512491314233,CMR,ADM2,12.88891922310019,8.246978826684657,True,Africa/Douala,0.0,180,388221.50081648794,475131.1846983495
661,Mayo-Louti,32672807B2656917895115,CMR,ADM2,13.804099427204127,9.93751452553776,True,Africa/Douala,0.0,180,407783.5287225949,502738.54699116934
662,Mayo-Rey,32672807B45774164265008,CMR,ADM2,14.480531243437195,8.111873808951913,True,Africa/Douala,562.0,180,385551.6886789068,474608.79012636276
663,Boyo,32672807B40523536040617,CMR,ADM2,10.365939753883994,6.353063920551453,True,Africa/Douala,0.0,180,331418.2953973068,382506.3467603181
664,Bui,32672807B1542757875740,CMR,ADM2,10.737765325656218,6.214180948958573,True,Africa/Douala,0.0,180,374135.1288277568,447722.1908735741
665,Donga-Mantung,32672807B54432963078560,CMR,ADM2,10.803851895862898,6.63494167107755,True,Africa/Douala,1481.0,180,370771.12541964743,441578.5179765825
666,Menchum,32672807B61384913593218,CMR,ADM2,10.071503826044589,6.588074852931286,True,Africa/Douala,0.0,180,352333.6667143417,416380.00469829846
667,Mezam,32672807B13167032786609,CMR,ADM2,10.146790937401423,5.990808611880982,True,Africa/Douala,0.0,180,349137.62292806234,415076.5208301761
668,Momo,32672807B23500574999001,CMR,ADM2,9.814194824098662,5.973069724527442,True,Africa/Douala,1630.0,180,298571.20632691775,339464.13967916556
669,Ngo-ketunjia,32672807B14234433619225,CMR,ADM2,10.482499685360361,5.963506303300037,True,Africa/Douala,0.0,180,386016.0632590168,465507.8446846758
670,Bamboutos,32672807B7261733805593,CMR,ADM2,10.310083030821312,5.674390575032227,True,Africa/Douala,0.0,180,376196.2865546063,453356.0858543201
